sciName,tiplabel,GENUS,FAMILY,ORDER,MSW3_sciName_matched,genes,extinct.,samp,BM,BodyMass_imp.,BM_SourceDB,BM_Method,BM_Ref,latCat,latMids,Lat_centroid,Lon_centroid,lat_min,lat_max,lon_min,lon_max
Abditomys_latidens,Abditomys_latidens_MURIDAE_RODENTIA,Abditomys,MURIDAE,RODENTIA,Abditomys_latidens,0,0,imputed,0.269,FALSE,FS2016,Reported,Ecological_Archives_E084-094_(2003),1,15.539036,15.9278526,121.03195,14.046836,17.031236,120.7883,121.3294
Abeomelomys_sevia,Abeomelomys_sevia_MURIDAE_RODENTIA,Abeomelomys,MURIDAE,RODENTIA,Abeomelomys_sevia,5,0,sampled,0.052,FALSE,FS2016,Reported,Ecological_Archives_E084-094_(2003),1,-5.89838,-5.999044654,144.9942564,-6.756209,-5.040551,141.581657,147.651141
Abrawayaomys_chebezi,Abrawayaomys_chebezi_CRICETIDAE_RODENTIA,Abrawayaomys,CRICETIDAE,RODENTIA,NA,0,0,imputed,0.064850071,TRUE,NA,NA,NA,2,-25.680005,NA,NA,-25.841922,-25.518088,-54.687723,-54.328397
Abrawayaomys_ruschii,Abrawayaomys_ruschii_CRICETIDAE_RODENTIA,Abrawayaomys,CRICETIDAE,RODENTIA,Abrawayaomys_ruschii,0,0,imputed,0.063,FALSE,FS2016,Reported,Ecological_Archives_E084-094_(2003),0,-23.613663,-26.28987766,-54.22404805,-27.923152,-19.304174,-52.893664,-40.834419
Abrocoma_bennettii,Abrocoma_bennettii_ABROCOMIDAE_RODENTIA,Abrocoma,ABROCOMIDAE,RODENTIA,Abrocoma_bennettii,23,0,sampled,0.25,FALSE,FS2016,Reported,Ecological_Archives_E084-094_(2003),2,-29.597364,-31.63701581,-70.71958466,-34.610064,-24.584664,-71.727391,-69.316956
Abrocoma_boliviensis,Abrocoma_boliviensis_ABROCOMIDAE_RODENTIA,Abrocoma,ABROCOMIDAE,RODENTIA,Abrocoma_boliviensis,1,0,sampled,0.158,FALSE,FS2016,Reported,Ecological_Archives_E084-094_(2003),1,-17.9032105,-17.90390862,-64.52170475,-17.930613,-17.875808,-64.583469,-64.45733
Abrocoma_budini,Abrocoma_budini_ABROCOMIDAE_RODENTIA,Abrocoma,ABROCOMIDAE,RODENTIA,Abrocoma_budini,0,0,imputed,0.3607,FALSE,FS2016,Assumed_isometric_based_on_head-body_length,Journal_of_Mammalogy_83:_1-19_(2002),2,-28.971112,-28.96503382,-65.58533075,-29.113915,-28.828309,-65.672886,-65.501813
Abrocoma_cinerea,Abrocoma_cinerea_ABROCOMIDAE_RODENTIA,Abrocoma,ABROCOMIDAE,RODENTIA,Abrocoma_cinerea,5,0,sampled,0.25,FALSE,FS2016,Reported,Ecological_Archives_E084-094_(2003),0,-21.255564,-20.82184916,-67.35521633,-28.000964,-14.510164,-72.415558,-64.564178
Abrocoma_famatina,Abrocoma_famatina_ABROCOMIDAE_RODENTIA,Abrocoma,ABROCOMIDAE,RODENTIA,Abrocoma_famatina,0,0,imputed,0.2334,FALSE,FS2016,Assumed_isometric_based_on_head-body_length,Journal_of_Mammalogy_83:_1-19_(2002),2,-28.948429,-28.95030178,-67.80622798,-29.378325,-28.518533,-68.039259,-67.559657
Abrocoma_shistacea,Abrocoma_shistacea_ABROCOMIDAE_RODENTIA,Abrocoma,ABROCOMIDAE,RODENTIA,Abrocoma_shistacea,0,0,imputed,0.2763,FALSE,FS2016,Assumed_isometric_based_on_head-body_length,Journal_of_Mammalogy_83:_1-19_(2002),2,-31.6111305,-31.79700222,-68.92742571,-32.010689,-31.211572,-69.552854,-68.592715
Abrocoma_uspallata,Abrocoma_uspallata_ABROCOMIDAE_RODENTIA,Abrocoma,ABROCOMIDAE,RODENTIA,Abrocoma_uspallata,0,0,imputed,0.2458,FALSE,FS2016,Assumed_isometric_based_on_head-body_length,Journal_of_Mammalogy_83:_1-19_(2002),2,-32.6810735,-32.68062256,-69.33085137,-32.707954,-32.654193,-69.347769,-69.313514
Abrocoma_vaccarum,Abrocoma_vaccarum_ABROCOMIDAE_RODENTIA,Abrocoma,ABROCOMIDAE,RODENTIA,Abrocoma_vaccarum,0,0,imputed,0.2543,FALSE,FS2016,Assumed_isometric_based_on_head-body_length,Journal_of_Mammalogy_83:_1-19_(2002),2,-32.75518,-32.7564395,-69.72317646,-32.793889,-32.716471,-69.757798,-69.688529
Abrothrix_andinus,Abrothrix_andinus_CRICETIDAE_RODENTIA,Abrothrix,CRICETIDAE,RODENTIA,Abrothrix_andinus,6,0,sampled,0.018,FALSE,FS2016,Reported,Ecological_Archives_E084-094_(2003),0,-24.354564,-22.16249724,-68.33754904,-34.655464,-14.053664,-72.649,-65.1505
Abrothrix_hershkovitzi,Abrothrix_hershkovitzi_CRICETIDAE_RODENTIA,Abrothrix,CRICETIDAE,RODENTIA,Abrothrix_hershkovitzi,1,0,sampled,0.0349,FALSE,FS2016,Assumed_isometric_based_on_head-body_length,Mammalian_Biology_73:_309–317_(2003),2,-54.890963,NA,NA,-55.984028,-53.797898,-72.823608,-66.782501
Abrothrix_illuteus,Abrothrix_illuteus_CRICETIDAE_RODENTIA,Abrothrix,CRICETIDAE,RODENTIA,Abrothrix_illuteus,2,0,sampled,0.0478,FALSE,FS2016,Reported,Ecological_Archives_E084-094_(2003),2,-26.8324575,-25.61891417,-65.78811473,-28.203751,-25.461164,-66.9832,-64.403864
Abrothrix_jelskii,Abrothrix_jelskii_CRICETIDAE_RODENTIA,Abrothrix,CRICETIDAE,RODENTIA,Abrothrix_jelskii,6,0,sampled,0.0345,FALSE,FS2016,Reported,Ecological_Archives_E084-094_(2003),0,-15.821164,-16.44076591,-70.265313,-23.609564,-8.032764,-78.1057,-65.1301
Abrothrix_lanosus,Abrothrix_lanosus_CRICETIDAE_RODENTIA,Abrothrix,CRICETIDAE,RODENTIA,Abrothrix_lanosus,2,0,sampled,0.0325,FALSE,FS2016,Reported,Ecological_Archives_E084-094_(2003),2,-52.761014,-52.97866975,-70.25408381,-54.847064,-50.674964,-74.2465,-67.0876
Abrothrix_longipilis,Abrothrix_longipilis_CRICETIDAE_RODENTIA,Abrothrix,CRICETIDAE,RODENTIA,Abrothrix_longipilis,5,0,sampled,0.0376,FALSE,FS2016,Reported,Ecological_Archives_E084-094_(2003),2,-42.234614,-43.00707198,-70.83002534,-54.174464,-30.294764,-73.7581,-65.8951
Abrothrix_manni,Abrothrix_manni_CRICETIDAE_RODENTIA,Abrothrix,CRICETIDAE,RODENTIA,NA,0,0,imputed,0.035355963,TRUE,NA,NA,NA,2,-40.651104,NA,NA,-42.284788,-39.01742,-74.08127,-71.019244
Abrothrix_markhami,Abrothrix_markhami_CRICETIDAE_RODENTIA,Abrothrix,CRICETIDAE,RODENTIA,Abrothrix_markhami,1,0,sampled,0.038,FALSE,FS2016,Reported,Mammalian_Biology_73:_309–317_(2003),2,-49.1363255,NA,NA,-49.139003,-49.133648,-74.462391,-74.45487
Abrothrix_olivaceus,Abrothrix_olivaceus_CRICETIDAE_RODENTIA,Abrothrix,CRICETIDAE,RODENTIA,Abrothrix_olivaceus,5,0,sampled,0.039,FALSE,FS2016,Reported,Ecological_Archives_E084-094_(2003),0,-36.145464,-42.31307223,-70.54632719,-53.902864,-18.388064,-75.6942,-64.980919
Abrothrix_sanborni,Abrothrix_sanborni_CRICETIDAE_RODENTIA,Abrothrix,CRICETIDAE,RODENTIA,Abrothrix_sanborni,2,0,sampled,0.0247,FALSE,FS2016,Reported,Ecological_Archives_E084-094_(2003),2,-44.5507445,-41.99220767,-72.80664923,-46.492625,-42.608864,-74.40625,-71.750074
Acerodon_celebensis,Acerodon_celebensis_PTEROPODIDAE_CHIROPTERA,Acerodon,PTEROPODIDAE,CHIROPTERA,Acerodon_celebensis,5,0,sampled,0.39,FALSE,FS2016,Reported,Ecological_Archives_E084-094_(2003),1,-1.377564,-2.074558642,121.2253572,-6.499064,3.743936,118.7525,126.3494
Acerodon_humilis,Acerodon_humilis_PTEROPODIDAE_CHIROPTERA,Acerodon,PTEROPODIDAE,CHIROPTERA,Acerodon_humilis,0,0,imputed,0.5996,FALSE,FS2016,Assumed_isometric_based_on_forearm_length,Flannery_TM._Mammals_of_the_South_West_Pacific_&_Moluccan_Islands_(1994),1,4.183386,4.251267475,126.7762911,3.816936,4.549836,126.6087,126.9206
Acerodon_jubatus,Acerodon_jubatus_PTEROPODIDAE_CHIROPTERA,Acerodon,PTEROPODIDAE,CHIROPTERA,Acerodon_jubatus,1,0,sampled,1.075,FALSE,FS2016,Reported,Ecological_Archives_E084-094_(2003),1,11.647136,11.45728407,122.8985502,4.643336,18.650936,119.4445,126.337
Acerodon_leucotis,Acerodon_leucotis_PTEROPODIDAE_CHIROPTERA,Acerodon,PTEROPODIDAE,CHIROPTERA,Acerodon_leucotis,0,0,imputed,0.5132,FALSE,FS2016,Assumed_isometric_based_on_forearm_length,Fieldiana_Zoology_69:_1-44_(1992),1,10.066486,9.867432752,118.6340099,7.801636,12.331336,116.9316,120.3418
Acerodon_mackloti,Acerodon_mackloti_PTEROPODIDAE_CHIROPTERA,Acerodon,PTEROPODIDAE,CHIROPTERA,Acerodon_mackloti,0,0,imputed,0.4703,FALSE,FS2016,Reported,Ecological_Archives_E084-094_(2003),1,-9.221464,-9.012068121,121.6544187,-10.374764,-8.068164,115.8361,127.3049
Acinonyx_jubatus,Acinonyx_jubatus_FELIDAE_CARNIVORA,Acinonyx,FELIDAE,CARNIVORA,Acinonyx_jubatus,7,0,sampled,46.7,FALSE,FS2016,Reported,Ecological_Archives_E084-094_(2003),2,4.134081,3.172881984,21.71785079,-28.858322,37.126484,-8.673868,57.540759
Acomys_airensis,Acomys_airensis_MURIDAE_RODENTIA,Acomys,MURIDAE,RODENTIA,Acomys_airensis,0,0,imputed,0.0483,FALSE,FS2016,Assumed_isometric_based_on_head-body_length,Isreal_Journal_of_Zoology_40:_215-246_(1994),1,18.475151,18.4538816,1.577636172,14.414497,22.535805,-12.644175,14.310558
Acomys_cahirinus,Acomys_cahirinus_MURIDAE_RODENTIA,Acomys,MURIDAE,RODENTIA,Acomys_cahirinus,9,0,sampled,0.0525,FALSE,FS2016,Reported,Ecological_Archives_E084-094_(2003),0,21.9620215,24.59122469,19.38024281,11.0109,32.913143,-15.277543,43.625683
Acomys_cilicicus,Acomys_cilicicus_MURIDAE_RODENTIA,Acomys,MURIDAE,RODENTIA,Acomys_cilicicus,1,0,sampled,0.0425,FALSE,FS2016,Reported,"Aulagnier_S,_Haffner_P,_Mitchell-Jones_AJ,_Moutou_F,_Zima,_J._The_Mammals_of_Europe,_North_Africa_and_the_Middle_East_(2009)",2,36.4305895,36.43848423,34.1038903,36.393648,36.467531,34.073597,34.140662
Acomys_cineraceus,Acomys_cineraceus_MURIDAE_RODENTIA,Acomys,MURIDAE,RODENTIA,Acomys_cineraceus,0,0,imputed,0.0203,FALSE,FS2016,Assumed_isometric_based_on_head-body_length,Proceedings_of_the_Unites_States_National_Museum_106:_447-583_(1959),1,9.948736,10.30473116,32.87572024,3.410036,16.487436,23.0144,43.0785
Acomys_dimidiatus,Acomys_dimidiatus_MURIDAE_RODENTIA,Acomys,MURIDAE,RODENTIA,Acomys_dimidiatus,1,0,sampled,0.0375,FALSE,FS2016,Reported,"Aulagnier_S,_Haffner_P,_Mitchell-Jones_AJ,_Moutou_F,_Zima,_J._The_Mammals_of_Europe,_North_Africa_and_the_Middle_East_(2009)",0,23.010636,22.54414839,46.87582787,12.591336,33.429936,32.5628,67.9777
Acomys_ignitus,Acomys_ignitus_MURIDAE_RODENTIA,Acomys,MURIDAE,RODENTIA,Acomys_ignitus,6,0,sampled,0.024,FALSE,FS2016,Reported,"Aulagnier_S,_Haffner_P,_Mitchell-Jones_AJ,_Moutou_F,_Zima,_J._The_Mammals_of_Europe,_North_Africa_and_the_Middle_East_(2009)",1,-2.907764,-2.697570789,38.44777905,-4.613264,-1.202264,36.2695,40.2928
Acomys_johannis,Acomys_johannis_MURIDAE_RODENTIA,Acomys,MURIDAE,RODENTIA,Acomys_johannis,1,0,sampled,0.0185,FALSE,FS2016,Assumed_isometric_based_on_head-body_length,Annals_and_Magazine_of_Natural_History_8_9:_269-274_(1912),1,11.875136,12.01428913,-0.382083316,8.792136,14.958136,-5.0014,14.2078
Acomys_kempi,Acomys_kempi_MURIDAE_RODENTIA,Acomys,MURIDAE,RODENTIA,Acomys_kempi,0,0,imputed,0.022,FALSE,FS2016,Reported,Ecological_Archives_E084-094_(2003),1,0.013286,1.326465647,40.22979809,-4.743564,4.770136,35.6457,45.0875
Acomys_louisae,Acomys_louisae_MURIDAE_RODENTIA,Acomys,MURIDAE,RODENTIA,Acomys_louisae,0,0,imputed,0.0202,FALSE,FS2016,Reported,Ecological_Archives_E084-094_(2003),1,4.960136,6.174156147,45.90090764,-2.064964,11.985236,40.6037,51.413
Acomys_minous,Acomys_minous_MURIDAE_RODENTIA,Acomys,MURIDAE,RODENTIA,Acomys_minous,1,0,sampled,0.0625,FALSE,FS2016,Reported,Ecological_Archives_E084-094_(2003),2,35.3100685,35.23385389,24.84664364,34.925175,35.694962,23.520502,26.317026
Acomys_mullah,Acomys_mullah_MURIDAE_RODENTIA,Acomys,MURIDAE,RODENTIA,Acomys_mullah,0,0,imputed,0.0284,FALSE,FS2016,Reported,Global_Ecology_and_Biogeography_18:_19-29_(2009),1,11.911286,11.15762292,42.30267387,8.911336,14.911236,39.8792,45.5491
Acomys_muzei,Acomys_muzei_MURIDAE_RODENTIA,Acomys,MURIDAE,RODENTIA,NA,1,0,sampled,0.066704943,TRUE,NA,NA,NA,1,-7.1991475,NA,NA,-11.460726,-2.937569,26.44212,36.293811
Acomys_nesiotes,Acomys_nesiotes_MURIDAE_RODENTIA,Acomys,MURIDAE,RODENTIA,Acomys_nesiotes,1,0,sampled,0.0525,FALSE,FS2016,Reported,"Aulagnier_S,_Haffner_P,_Mitchell-Jones_AJ,_Moutou_F,_Zima,_J._The_Mammals_of_Europe,_North_Africa_and_the_Middle_East_(2009)",2,35.1325245,35.04924214,33.23491546,34.563511,35.701538,32.273087,34.597919
Acomys_ngurui,Acomys_ngurui_MURIDAE_RODENTIA,Acomys,MURIDAE,RODENTIA,NA,1,0,sampled,0.090888375,TRUE,NA,NA,NA,1,-7.9211705,NA,NA,-11.226272,-4.616069,34.932597,40.314369
Acomys_percivali,Acomys_percivali_MURIDAE_RODENTIA,Acomys,MURIDAE,RODENTIA,Acomys_percivali,2,0,sampled,0.022,FALSE,FS2016,Reported,Ecological_Archives_E084-094_(2003),1,1.905686,3.114825457,35.05900667,-1.636064,5.447436,31.6399,38.2003
Acomys_russatus,Acomys_russatus_MURIDAE_RODENTIA,Acomys,MURIDAE,RODENTIA,Acomys_russatus,7,0,sampled,0.0498,FALSE,FS2016,Reported,Ecological_Archives_E084-094_(2003),0,23.0226095,22.38934049,39.7539049,12.591311,33.453908,30.762036,48.41578
Acomys_seurati,Acomys_seurati_MURIDAE_RODENTIA,Acomys,MURIDAE,RODENTIA,Acomys_seurati,0,0,imputed,0.0712,FALSE,FS2016,Assumed_isometric_based_on_skull_size,Isreal_Journal_of_Zoology_40:_215-246_(1994),0,24.2261665,24.32803802,6.707087816,21.622377,26.829956,3.420489,10.152337
Acomys_spinosissimus,Acomys_spinosissimus_MURIDAE_RODENTIA,Acomys,MURIDAE,RODENTIA,Acomys_spinosissimus,2,0,sampled,0.0265,FALSE,FS2016,Reported,Ecological_Archives_E084-094_(2003),0,-15.466014,-15.38832107,32.16957825,-25.788464,-5.143564,24.180123,38.8154
Acomys_subspinosus,Acomys_subspinosus_MURIDAE_RODENTIA,Acomys,MURIDAE,RODENTIA,Acomys_subspinosus,0,0,imputed,0.021,FALSE,FS2016,Reported,Ecological_Archives_E084-094_(2003),2,-32.667701,-33.49458897,20.17535262,-34.839764,-30.495638,17.845707,23.751933
Acomys_wilsoni,Acomys_wilsoni_MURIDAE_RODENTIA,Acomys,MURIDAE,RODENTIA,Acomys_wilsoni,2,0,sampled,0.0185,FALSE,FS2016,Reported,Ecological_Archives_E084-094_(2003),1,-0.875964,0.690848474,38.32401378,-8.074864,6.322936,31.2773,46.8305
Aconaemys_fuscus,Aconaemys_fuscus_OCTODONTIDAE_RODENTIA,Aconaemys,OCTODONTIDAE,RODENTIA,Aconaemys_fuscus,2,0,sampled,0.1335,FALSE,FS2016,Reported,Ecological_Archives_E084-094_(2003),2,-36.3398455,-38.00969717,-71.61951853,-37.80682,-34.872871,-71.824461,-70.238362
Aconaemys_porteri,Aconaemys_porteri_OCTODONTIDAE_RODENTIA,Aconaemys,OCTODONTIDAE,RODENTIA,Aconaemys_porteri,1,0,sampled,0.092,FALSE,FS2016,Reported,Global_Ecology_and_Biogeography_17:_274-283_(2008),2,-40.258924,-39.55625231,-71.81581023,-41.224258,-39.29359,-72.494874,-70.843369
Aconaemys_sagei,Aconaemys_sagei_OCTODONTIDAE_RODENTIA,Aconaemys,OCTODONTIDAE,RODENTIA,Aconaemys_sagei,2,0,sampled,0.0965,FALSE,FS2016,Reported,Ecological_Archives_E084-094_(2003),2,-39.110397,-39.40930511,-72.02984947,-40.434702,-37.786092,-73.482654,-70.728908
Acrobates_pygmaeus,Acrobates_pygmaeus_ACROBATIDAE_DIPROTODONTIA,Acrobates,ACROBATIDAE,DIPROTODONTIA,Acrobates_pygmaeus,21,0,sampled,0.012,FALSE,FS2016,Reported,Ecological_Archives_E084-094_(2003),0,-24.916173,-28.52592177,147.8582025,-39.138939,-10.693407,140.641983,153.639236
Addax_nasomaculatus,Addax_nasomaculatus_BOVIDAE_CETARTIODACTYLA,Addax,BOVIDAE,CETARTIODACTYLA,Addax_nasomaculatus,4,0,sampled,70.0003,FALSE,FS2016,Reported,Ecological_Archives_E084-094_(2003),1,19.069533,17.41145591,7.711139011,15.638136,22.50093,-10.2202,17.3105
Aegialomys_galapagoensis,Aegialomys_galapagoensis_CRICETIDAE_RODENTIA,Aegialomys,CRICETIDAE,RODENTIA,NA,2,0,sampled,0.1155,FALSE,FS2016,Assumed_isometric_based_on_head-body_length,"Eisenberg_JF,_Redford_KH_Mammals_of_the_Neotropics_(Volume_3_):_The_Central_Neotropics:_Ecuador,_Peru,_Bolivia,_Brazil_(2000)",1,-0.819864,-0.825321018,-89.45364836,-0.953564,-0.686164,-90.0885,-89.2399
Aegialomys_xanthaeolus,Aegialomys_xanthaeolus_CRICETIDAE_RODENTIA,Aegialomys,CRICETIDAE,RODENTIA,NA,4,0,sampled,0.0798,FALSE,FS2016,Reported,Ecological_Archives_E084-094_(2003),1,-8.258814,-7.44461858,-78.32040074,-16.208064,-0.309564,-81.3267,-73.1334
Aepeomys_lugens,Aepeomys_lugens_CRICETIDAE_RODENTIA,Aepeomys,CRICETIDAE,RODENTIA,Aepeomys_lugens,1,0,sampled,0.037,FALSE,FS2016,Reported,Ecological_Archives_E084-094_(2003),1,8.371886,8.351624899,-71.32761852,7.656036,9.087736,-72.1637,-70.4514
Aepeomys_reigi,Aepeomys_reigi_CRICETIDAE_RODENTIA,Aepeomys,CRICETIDAE,RODENTIA,Aepeomys_reigi,0,0,imputed,0.0406,FALSE,FS2016,Reported,Mammalian_Biology_66:_228-237_(2001),1,9.453186,9.480997517,-69.97537984,8.947436,9.958936,-70.666,-69.2798
Aepyceros_melampus,Aepyceros_melampus_BOVIDAE_CETARTIODACTYLA,Aepyceros,BOVIDAE,CETARTIODACTYLA,Aepyceros_melampus,1,0,sampled,52.5001,FALSE,FS2016,Reported,Ecological_Archives_E084-094_(2003),0,-12.464714,-13.31672641,31.55291976,-27.892464,2.963036,11.834788,40.6416
Aepyprymnus_rufescens,Aepyprymnus_rufescens_POTOROIDAE_DIPROTODONTIA,Aepyprymnus,POTOROIDAE,DIPROTODONTIA,Aepyprymnus_rufescens,27,0,sampled,3.25,FALSE,FS2016,Reported,Ecological_Archives_E084-094_(2003),0,-24.2794485,-24.18851841,149.0788284,-32.788133,-15.770764,143.951547,153.639236
Aeretes_melanopterus,Aeretes_melanopterus_SCIURIDAE_RODENTIA,Aeretes,SCIURIDAE,RODENTIA,Aeretes_melanopterus,1,0,sampled,0.7324,FALSE,FS2016,Assumed_isometric_based_on_head-body_length,"Smith_AT,_Xie_Y,_Hoffmann_RS,_Lunde_D,_MacKinnon_J,_Wilson_DE,_Wozencraft_WD._A_Guide_to_the_Mammals_of_China_(2008)",2,35.612257,32.40379506,103.738723,30.782035,40.442479,101.66596,117.799977
Aeromys_tephromelas,Aeromys_tephromelas_SCIURIDAE_RODENTIA,Aeromys,SCIURIDAE,RODENTIA,Aeromys_tephromelas,1,0,sampled,1.075,FALSE,FS2016,Reported,Ecological_Archives_E084-094_(2003),1,3.240985,3.712080451,107.1723896,-1.787966,8.269936,98.0026,117.903414
Aeromys_thomasi,Aeromys_thomasi_SCIURIDAE_RODENTIA,Aeromys,SCIURIDAE,RODENTIA,Aeromys_thomasi,0,0,imputed,1.435,FALSE,FS2016,Reported,Ecological_Archives_E084-094_(2003),1,2.561636,2.076024046,113.7981628,-1.911864,7.035136,108.839,119.2675
Aethalops_aequalis,Aethalops_aequalis_PTEROPODIDAE_CHIROPTERA,Aethalops,PTEROPODIDAE,CHIROPTERA,Aethalops_aequalis,2,0,sampled,0.0116,FALSE,FS2016,Assumed_isometric_based_on_forearm_length,Mammalia_57:_255-272_(1993),1,3.5562905,4.401515251,115.8540414,0.708244,6.404337,109.907353,117.133402
Aethalops_alecto,Aethalops_alecto_PTEROPODIDAE_CHIROPTERA,Aethalops,PTEROPODIDAE,CHIROPTERA,Aethalops_alecto,6,0,sampled,0.015,FALSE,FS2016,Reported,Ecological_Archives_E084-094_(2003),1,-1.418192,-0.110035756,107.1736632,-8.495288,5.658904,96.020168,116.598462
Aethomys_bocagei,Aethomys_bocagei_MURIDAE_RODENTIA,Aethomys,MURIDAE,RODENTIA,Aethomys_bocagei,0,0,imputed,0.1076,FALSE,FS2016,Reported,Global_Ecology_and_Biogeography_18:_19-29_(2009),1,-9.373264,-9.527360116,14.73965394,-13.578664,-5.167864,12.1395,17.8878
Aethomys_chrysophilus,Aethomys_chrysophilus_MURIDAE_RODENTIA,Aethomys,MURIDAE,RODENTIA,Aethomys_chrysophilus,3,0,sampled,0.0749,FALSE,FS2016,Reported,Ecological_Archives_E084-094_(2003),0,-13.500514,-16.35496023,28.4398856,-28.698264,1.697236,12.898,41.1797
Aethomys_granti,Aethomys_granti_MURIDAE_RODENTIA,Aethomys,MURIDAE,RODENTIA,NA,0,0,imputed,0.04,FALSE,FS2016,Reported,Ecological_Archives_E084-094_(2003),2,-32.172325,-32.26213933,22.36968535,-33.960664,-30.383986,17.98941,26.761683
Aethomys_hindei,Aethomys_hindei_MURIDAE_RODENTIA,Aethomys,MURIDAE,RODENTIA,Aethomys_hindei,0,0,imputed,0.1035,FALSE,FS2016,Reported,Ecological_Archives_E084-094_(2003),1,2.750336,4.132763473,28.51944837,-4.458564,9.959236,11.4296,40.5105
Aethomys_ineptus,Aethomys_ineptus_MURIDAE_RODENTIA,Aethomys,MURIDAE,RODENTIA,Aethomys_ineptus,1,0,sampled,0.0749,FALSE,FS2016,As_relative_of_suggested_similar_size,Following_Mammalian_Species_808:_1-10_(2008)_the_two_species_are_only_seperatable_by_karyotyping_or_genetics,0,-26.69623,-26.59990723,29.09191472,-30.871364,-22.521096,22.261618,32.9939
Aethomys_kaiseri,Aethomys_kaiseri_MURIDAE_RODENTIA,Aethomys,MURIDAE,RODENTIA,Aethomys_kaiseri,1,0,sampled,0.09,FALSE,FS2016,Reported,Ecological_Archives_E084-094_(2003),1,-6.846664,-7.542098006,29.32590887,-13.391864,-0.301464,17.0486,39.281
Aethomys_namaquensis,Aethomys_namaquensis_MURIDAE_RODENTIA,Aethomys,MURIDAE,RODENTIA,NA,4,0,sampled,0.0506,FALSE,FS2016,Reported,Ecological_Archives_E084-094_(2003),0,-24.842614,-24.14501558,24.08524885,-34.839764,-14.845464,11.7156,38.2356
Aethomys_nyikae,Aethomys_nyikae_MURIDAE_RODENTIA,Aethomys,MURIDAE,RODENTIA,Aethomys_nyikae,0,0,imputed,0.077,FALSE,FS2016,Reported,Ecological_Archives_E084-094_(2003),1,-10.695714,-10.63481023,26.28323693,-14.512764,-6.878664,17.2092,35.3008
Aethomys_silindensis,Aethomys_silindensis_MURIDAE_RODENTIA,Aethomys,MURIDAE,RODENTIA,Aethomys_silindensis,0,0,imputed,0.1076,FALSE,FS2016,Reported,Global_Ecology_and_Biogeography_18:_19-29_(2009),1,-19.346114,-19.50435472,32.75221376,-21.002864,-17.689364,32.2405,33.2128
Aethomys_stannarius,Aethomys_stannarius_MURIDAE_RODENTIA,Aethomys,MURIDAE,RODENTIA,Aethomys_stannarius,0,0,imputed,0.1076,FALSE,FS2016,Reported,Global_Ecology_and_Biogeography_18:_19-29_(2009),1,10.126786,10.24668619,10.85231805,8.608036,11.645536,8.0532,14.5009
Aethomys_thomasi,Aethomys_thomasi_MURIDAE_RODENTIA,Aethomys,MURIDAE,RODENTIA,Aethomys_thomasi,0,0,imputed,0.1076,FALSE,FS2016,Reported,Global_Ecology_and_Biogeography_18:_19-29_(2009),1,-13.277514,-13.67994751,15.84236881,-16.270564,-10.284464,13.1891,18.8496
Ailuropoda_melanoleuca,Ailuropoda_melanoleuca_URSIDAE_CARNIVORA,Ailuropoda,URSIDAE,CARNIVORA,Ailuropoda_melanoleuca,30,0,sampled,108.4,FALSE,FS2016,Reported,Ecological_Archives_E084-094_(2003),2,31.0532795,31.30822418,104.0784954,28.105125,34.001434,101.894876,108.799149
Ailurops_melanotis,Ailurops_melanotis_PHALANGERIDAE_DIPROTODONTIA,Ailurops,PHALANGERIDAE,DIPROTODONTIA,Ailurops_melanotis,0,0,imputed,6.669,FALSE,FS2016,Assumed_isomettic_based_on_mandible_size,Zoologische_Abhandlungen_Dresden_34:_187-197_(1977),1,3.7416205,3.641828885,125.9123926,3.439207,4.044034,125.483604,126.733391
Ailurops_ursinus,Ailurops_ursinus_PHALANGERIDAE_DIPROTODONTIA,Ailurops,PHALANGERIDAE,DIPROTODONTIA,Ailurops_ursinus,9,0,sampled,10,FALSE,FS2016,Reported,Ecological_Archives_E084-094_(2003),1,-1.9737195,-2.119319922,121.2144497,-5.705817,1.758378,118.752502,125.295898
Ailurus_fulgens,Ailurus_fulgens_AILURIDAE_CARNIVORA,Ailurus,AILURIDAE,CARNIVORA,Ailurus_fulgens,25,0,sampled,4.9,FALSE,FS2016,Reported,Ecological_Archives_E084-094_(2003),2,28.9256895,28.60568735,96.57000401,24.180908,33.670471,81.954318,104.74408
Akodon_aerosus,Akodon_aerosus_CRICETIDAE_RODENTIA,Akodon,CRICETIDAE,RODENTIA,Akodon_aerosus,5,0,sampled,0.06,FALSE,FS2016,Reported,Ecological_Archives_E084-094_(2003),1,-9.437414,-9.436630952,-74.01724211,-17.525564,-1.349264,-78.9996,-64.8798
Akodon_affinis,Akodon_affinis_CRICETIDAE_RODENTIA,Akodon,CRICETIDAE,RODENTIA,Akodon_affinis,1,0,sampled,0.0249,FALSE,FS2016,Reported,Ecological_Archives_E084-094_(2003),1,4.882215,4.787322826,-75.89331485,2.573136,7.191294,-76.957476,-75.0283
Akodon_albiventer,Akodon_albiventer_CRICETIDAE_RODENTIA,Akodon,CRICETIDAE,RODENTIA,Akodon_albiventer,2,0,sampled,0.0218,FALSE,FS2016,Reported,Ecological_Archives_E084-094_(2003),0,-20.500214,-19.75426641,-67.7601923,-26.042964,-14.957464,-72.7585,-64.5407
Akodon_aliquantulus,Akodon_aliquantulus_CRICETIDAE_RODENTIA,Akodon,CRICETIDAE,RODENTIA,Akodon_aliquantulus,0,0,imputed,0.014,FALSE,FS2016,Assumed_isometric_based_on_head-body_length,Journal_of_Mammalogy_80:_786-798_(1999),0,-23.064341,-26.68463256,-65.31811373,-28.799815,-17.328867,-66.356423,-63.756401
Akodon_azarae,Akodon_azarae_CRICETIDAE_RODENTIA,Akodon,CRICETIDAE,RODENTIA,Akodon_azarae,2,0,sampled,0.025,FALSE,FS2016,Reported,Ecological_Archives_E084-094_(2003),2,-32.848314,-33.24486938,-59.56389996,-40.992664,-24.703964,-66.7182,-50.264
Akodon_bogotensis,Akodon_bogotensis_CRICETIDAE_RODENTIA,Akodon,CRICETIDAE,RODENTIA,Akodon_bogotensis,0,0,imputed,0.013,FALSE,FS2016,Reported,Ecological_Archives_E084-094_(2003),1,5.754175,5.990373574,-73.03266057,2.137514,9.370836,-75.497061,-70.0648
Akodon_boliviensis,Akodon_boliviensis_CRICETIDAE_RODENTIA,Akodon,CRICETIDAE,RODENTIA,Akodon_boliviensis,5,0,sampled,0.0275,FALSE,FS2016,Reported,Ecological_Archives_E084-094_(2003),0,-18.645814,-17.44109426,-67.77165481,-23.531864,-13.759764,-70.8656,-64.3783
Akodon_budini,Akodon_budini_CRICETIDAE_RODENTIA,Akodon,CRICETIDAE,RODENTIA,Akodon_budini,1,0,sampled,0.0269,FALSE,FS2016,Reported,Ecological_Archives_E084-094_(2003),0,-23.099714,-23.01231308,-64.59815893,-24.341664,-21.857764,-65.3921,-64.0116
Akodon_cursor,Akodon_cursor_CRICETIDAE_RODENTIA,Akodon,CRICETIDAE,RODENTIA,Akodon_cursor,5,0,sampled,0.0399,FALSE,FS2016,Reported,Ecological_Archives_E084-094_(2003),0,-16.828914,-18.15376928,-42.70862974,-27.209764,-6.448064,-54.9165,-34.7901
Akodon_dayi,Akodon_dayi_CRICETIDAE_RODENTIA,Akodon,CRICETIDAE,RODENTIA,Akodon_dayi,2,0,sampled,0.0325,FALSE,FS2016,Reported,Ecological_Archives_E084-094_(2003),1,-14.678364,-15.63699531,-65.80048993,-18.808764,-10.547964,-68.8525,-62.3511
Akodon_dolores,Akodon_dolores_CRICETIDAE_RODENTIA,Akodon,CRICETIDAE,RODENTIA,Akodon_dolores,3,0,sampled,0.0505,FALSE,FS2016,Reported,Ecological_Archives_E084-094_(2003),2,-31.1527135,-31.61202684,-64.76983862,-33.673164,-28.632263,-66.465406,-63.7847
Akodon_fumeus,Akodon_fumeus_CRICETIDAE_RODENTIA,Akodon,CRICETIDAE,RODENTIA,Akodon_fumeus,2,0,sampled,0.0227,FALSE,FS2016,Reported,Ecological_Archives_E084-094_(2003),1,-17.799014,-17.22464177,-66.3235679,-22.340964,-13.257064,-70.4726,-63.29
Akodon_iniscatus,Akodon_iniscatus_CRICETIDAE_RODENTIA,Akodon,CRICETIDAE,RODENTIA,Akodon_iniscatus,3,0,sampled,0.0287,FALSE,FS2016,Reported,Ecological_Archives_E084-094_(2003),2,-41.733664,-41.74356709,-68.08421478,-47.793164,-35.674164,-72.1902,-62.1267
Akodon_josemariarguedasi,Akodon_josemariarguedasi_CRICETIDAE_RODENTIA,Akodon,CRICETIDAE,RODENTIA,NA,0,0,imputed,0.039982799,TRUE,NA,NA,NA,1,-10.149951,NA,NA,-10.326802,-9.9731,-76.312996,-75.95367
Akodon_juninensis,Akodon_juninensis_CRICETIDAE_RODENTIA,Akodon,CRICETIDAE,RODENTIA,Akodon_juninensis,2,0,sampled,0.039,FALSE,FS2016,Reported,Ecological_Archives_E084-094_(2003),1,-11.943144,-11.66258419,-75.54325749,-15.903923,-7.982365,-78.1768,-73.1625
Akodon_kofordi,Akodon_kofordi_CRICETIDAE_RODENTIA,Akodon,CRICETIDAE,RODENTIA,Akodon_kofordi,5,0,sampled,0.0295,FALSE,FS2016,Reported,Ecological_Archives_E084-094_(2003),1,-15.118864,-14.06901774,-69.77709571,-17.323264,-12.914464,-71.6298,-65.2032
Akodon_latebricola,Akodon_latebricola_CRICETIDAE_RODENTIA,Akodon,CRICETIDAE,RODENTIA,Akodon_latebricola,1,0,sampled,0.039,FALSE,FS2016,Reported,Ecological_Archives_E084-094_(2003),1,-0.336313,-0.188435871,-77.98493767,-1.486864,0.814238,-78.322699,-77.577299
Akodon_leucolimnaeus,Akodon_leucolimnaeus_CRICETIDAE_RODENTIA,Akodon,CRICETIDAE,RODENTIA,Akodon_leucolimnaeus,0,0,imputed,0.038180664,TRUE,NA,NA,NA,NA,NA,-26.13856487,-67.43960447,NA,NA,NA,NA
Akodon_lindberghi,Akodon_lindberghi_CRICETIDAE_RODENTIA,Akodon,CRICETIDAE,RODENTIA,Akodon_lindberghi,1,0,sampled,0.0264,FALSE,FS2016,Reported,Ecological_Archives_E084-094_(2003),1,-18.806614,-20.31578819,-45.60295921,-22.105864,-15.507364,-48.2048,-42.8051
Akodon_lutescens,Akodon_lutescens_CRICETIDAE_RODENTIA,Akodon,CRICETIDAE,RODENTIA,Akodon_lutescens,4,0,sampled,0.0207,FALSE,FS2016,Reported,Ecological_Archives_E084-094_(2003),1,-18.241614,-20.38853078,-66.51812154,-22.200864,-14.282364,-70.7618,-64.1542
Akodon_mimus,Akodon_mimus_CRICETIDAE_RODENTIA,Akodon,CRICETIDAE,RODENTIA,Akodon_mimus,6,0,sampled,0.024,FALSE,FS2016,Reported,Ecological_Archives_E084-094_(2003),1,-15.83481,-16.1398874,-67.78554832,-18.071264,-13.598356,-70.409199,-64.6842
Akodon_molinae,Akodon_molinae_CRICETIDAE_RODENTIA,Akodon,CRICETIDAE,RODENTIA,Akodon_molinae,1,0,sampled,0.033,FALSE,FS2016,Reported,Ecological_Archives_E084-094_(2003),2,-38.296814,-38.10551763,-65.61459341,-43.451264,-33.142364,-69.4196,-61.4153
Akodon_mollis,Akodon_mollis_CRICETIDAE_RODENTIA,Akodon,CRICETIDAE,RODENTIA,Akodon_mollis,2,0,sampled,0.0304,FALSE,FS2016,Reported,Ecological_Archives_E084-094_(2003),1,-6.485164,-5.992894412,-78.13322552,-12.746464,-0.223864,-80.8674,-74.706
Akodon_montensis,Akodon_montensis_CRICETIDAE_RODENTIA,Akodon,CRICETIDAE,RODENTIA,Akodon_montensis,6,0,sampled,0.0441,FALSE,FS2016,Reported,Mammalian_Biology_68:_129-143_(2003),0,-24.5532075,-24.51762003,-50.80311619,-30.302963,-18.803452,-58.728899,-42.148405
Akodon_mystax,Akodon_mystax_CRICETIDAE_RODENTIA,Akodon,CRICETIDAE,RODENTIA,Akodon_mystax,2,0,sampled,0.0185,FALSE,FS2016,Reported,Bonner_Zoologische_Beiträge_47:_193-256_(1998),1,-21.364114,-20.66488777,-42.09513134,-22.415864,-20.312364,-44.6987,-41.7068
Akodon_neocenus,Akodon_neocenus_CRICETIDAE_RODENTIA,Akodon,CRICETIDAE,RODENTIA,Akodon_neocenus,0,0,imputed,0.0424,FALSE,FS2016,Reported,Ecological_Archives_E084-094_(2003),2,-39.51018,-39.35943062,-66.00805344,-40.926874,-38.093486,-70.773937,-64.703011
Akodon_oenos,Akodon_oenos_CRICETIDAE_RODENTIA,Akodon,CRICETIDAE,RODENTIA,Akodon_oenos,0,0,imputed,0.0248,FALSE,FS2016,Reported,Journal_of_Mammalogy_91:_387-400_(2010),2,-32.6785,-32.49687949,-68.3866866,-33.008325,-32.348675,-69.215542,-68.466257
Akodon_orophilus,Akodon_orophilus_CRICETIDAE_RODENTIA,Akodon,CRICETIDAE,RODENTIA,Akodon_orophilus,2,0,sampled,0.039,FALSE,FS2016,Reported,Ecological_Archives_E084-094_(2003),1,-7.223764,-7.238188794,-77.30145411,-9.328064,-5.119464,-78.6229,-75.9216
Akodon_paranaensis,Akodon_paranaensis_CRICETIDAE_RODENTIA,Akodon,CRICETIDAE,RODENTIA,Akodon_paranaensis,3,0,sampled,0.0403,FALSE,FS2016,Assumed_isometric_based_on_head-body_length,Journal_of_Mammalogy_81:_838-841_(2000),0,-26.8820595,-27.93267183,-51.58779053,-32.264877,-21.499242,-56.326784,-43.885644
Akodon_pervalens,Akodon_pervalens_CRICETIDAE_RODENTIA,Akodon,CRICETIDAE,RODENTIA,Akodon_pervalens,0,0,imputed,0.0613,FALSE,FS2016,Assumed_isometric_based_on_total_length,Mastozoología_Neotropical_14:_201-225_(2007),1,-20.734814,-20.90213915,-64.24318539,-22.224464,-19.245164,-64.8803,-63.6518
Akodon_philipmyersi,Akodon_philipmyersi_CRICETIDAE_RODENTIA,Akodon,CRICETIDAE,RODENTIA,NA,1,0,sampled,0.0187,FALSE,FS2016,Reported,Journal_of_Mammalogy_86:_462–474_(2005),2,-27.684334,-27.67728242,-55.54068102,-27.932703,-27.435965,-55.824942,-55.2784
Akodon_polopi,Akodon_polopi_CRICETIDAE_RODENTIA,Akodon,CRICETIDAE,RODENTIA,NA,2,0,sampled,0.032310377,TRUE,NA,NA,NA,2,-31.6122355,NA,NA,-31.765239,-31.459232,-64.993191,-64.633865
Akodon_reigi,Akodon_reigi_CRICETIDAE_RODENTIA,Akodon,CRICETIDAE,RODENTIA,Akodon_reigi,1,0,sampled,0.0413,FALSE,FS2016,Assumed_isometric_based_on_head-body_length,Mammalian_Biology_68:_129-143_(2003),2,-32.981384,-32.73928902,-54.10918812,-34.399263,-31.563505,-55.822399,-52.076799
Akodon_sanctipaulensis,Akodon_sanctipaulensis_CRICETIDAE_RODENTIA,Akodon,CRICETIDAE,RODENTIA,Akodon_sanctipaulensis,0,0,imputed,0.0271,FALSE,FS2016,Reported,Ecological_Archives_E084-094_(2003),2,-24.516714,-24.51627679,-48.12592599,-24.660664,-24.372764,-48.2688,-47.9788
Akodon_serrensis,Akodon_serrensis_CRICETIDAE_RODENTIA,Akodon,CRICETIDAE,RODENTIA,Akodon_serrensis,2,0,sampled,0.0283,FALSE,FS2016,Reported,Ecological_Archives_E084-094_(2003),0,-24.046265,-24.53265019,-48.93812684,-28.334965,-19.757565,-53.960899,-41.451149
Akodon_siberiae,Akodon_siberiae_CRICETIDAE_RODENTIA,Akodon,CRICETIDAE,RODENTIA,Akodon_siberiae,2,0,sampled,0.0346,FALSE,FS2016,Reported,Ecological_Archives_E084-094_(2003),1,-17.412814,-17.38141384,-65.57803617,-18.515164,-16.310464,-66.9445,-64.2703
Akodon_simulator,Akodon_simulator_CRICETIDAE_RODENTIA,Akodon,CRICETIDAE,RODENTIA,Akodon_simulator,1,0,sampled,0.0425,FALSE,FS2016,Reported,Ecological_Archives_E084-094_(2003),0,-24.909214,-25.26207924,-64.86602669,-28.968364,-20.850064,-66.5526,-62.5551
Akodon_spegazzinii,Akodon_spegazzinii_CRICETIDAE_RODENTIA,Akodon,CRICETIDAE,RODENTIA,Akodon_spegazzinii,3,0,sampled,0.0286,FALSE,FS2016,Reported,Ecological_Archives_E084-094_(2003),2,-26.856964,-26.49757175,-65.76523813,-29.173064,-24.540864,-66.8125,-64.5425
Akodon_subfuscus,Akodon_subfuscus_CRICETIDAE_RODENTIA,Akodon,CRICETIDAE,RODENTIA,Akodon_subfuscus,1,0,sampled,0.0304,FALSE,FS2016,Reported,Ecological_Archives_E084-094_(2003),1,-15.210414,-15.17095516,-70.14820216,-17.597564,-12.823264,-74.301955,-65.5045
Akodon_surdus,Akodon_surdus_CRICETIDAE_RODENTIA,Akodon,CRICETIDAE,RODENTIA,Akodon_surdus,0,0,imputed,0.039,FALSE,FS2016,Reported,Ecological_Archives_E084-094_(2003),1,-12.904564,-12.97648456,-72.94415005,-13.719264,-12.089864,-73.6979,-72.0239
Akodon_sylvanus,Akodon_sylvanus_CRICETIDAE_RODENTIA,Akodon,CRICETIDAE,RODENTIA,Akodon_sylvanus,1,0,sampled,0.039,FALSE,FS2016,Reported,Ecological_Archives_E084-094_(2003),0,-21.595264,-21.33370912,-64.46275752,-24.388164,-18.802364,-65.128599,-63.7775
Akodon_toba,Akodon_toba_CRICETIDAE_RODENTIA,Akodon,CRICETIDAE,RODENTIA,Akodon_toba,3,0,sampled,0.0512,FALSE,FS2016,Reported,Ecological_Archives_E084-094_(2003),0,-22.921414,-23.02800411,-61.10197009,-27.783064,-18.059764,-63.8595,-57.4554
Akodon_torques,Akodon_torques_CRICETIDAE_RODENTIA,Akodon,CRICETIDAE,RODENTIA,Akodon_torques,7,0,sampled,0.039,FALSE,FS2016,Reported,Ecological_Archives_E084-094_(2003),1,-11.9420135,-12.59467328,-72.97075477,-13.907064,-9.976963,-75.7432,-70.6008
Akodon_varius,Akodon_varius_CRICETIDAE_RODENTIA,Akodon,CRICETIDAE,RODENTIA,Akodon_varius,2,0,sampled,0.04,FALSE,FS2016,Reported,Ecological_Archives_E084-094_(2003),1,-19.290964,-18.77506883,-64.15149014,-22.369064,-16.212864,-67.1645,-61.8845
Alcelaphus_buselaphus,Alcelaphus_buselaphus_BOVIDAE_CETARTIODACTYLA,Alcelaphus,BOVIDAE,CETARTIODACTYLA,Alcelaphus_buselaphus,4,0,sampled,171.0015,FALSE,FS2016,Reported,Ecological_Archives_E084-094_(2003),0,-8.722214,-4.636613319,20.99140713,-34.839764,17.395336,-15.6879,40.2106
Alces_alces,Alces_alces_CERVIDAE_CETARTIODACTYLA,Alces,CERVIDAE,CETARTIODACTYLA,Alces_alces,5,0,sampled,355,FALSE,FS2016,Reported,Ecological_Archives_E084-094_(2003),2,56.6458455,58.75745135,20.99383475,40.473755,72.817936,-168.127762,160.7556
Alces_americanus,Alces_americanus_CERVIDAE_CETARTIODACTYLA,Alces,CERVIDAE,CETARTIODACTYLA,Alces_americanus,4,0,sampled,358.996,FALSE,FS2016,Reported,Ecological_Archives_E084-094_(2003),2,50.8026175,NA,NA,42.681296,58.923939,-86.615172,-58.229443
Alionycteris_paucidentata,Alionycteris_paucidentata_PTEROPODIDAE_CHIROPTERA,Alionycteris,PTEROPODIDAE,CHIROPTERA,Alionycteris_paucidentata,5,0,sampled,0.0162,FALSE,FS2016,Reported,Ecological_Archives_E084-094_(2003),1,8.193136,8.182429027,124.8919816,7.484836,8.901436,124.304252,125.392279
Allactaga_balikunica,Allactaga_balikunica_DIPODIDAE_RODENTIA,Allactaga,DIPODIDAE,RODENTIA,Allactaga_balikunica,0,0,imputed,0.0725,FALSE,FS2016,Reported,"Smith_AT,_Xie_Y,_Hoffmann_RS,_Lunde_D,_MacKinnon_J,_Wilson_DE,_Wozencraft_WD._A_Guide_to_the_Mammals_of_China_(2008)",2,43.3246905,43.30387199,100.8539487,41.567638,45.081743,92.984129,110.33902
Allactaga_bullata,Allactaga_bullata_DIPODIDAE_RODENTIA,Allactaga,DIPODIDAE,RODENTIA,Allactaga_bullata,11,0,sampled,0.087,FALSE,FS2016,Reported,"Smith_AT,_Xie_Y,_Hoffmann_RS,_Lunde_D,_MacKinnon_J,_Wilson_DE,_Wozencraft_WD._A_Guide_to_the_Mammals_of_China_(2008)",2,43.449033,43.28804761,101.4033865,36.871731,50.026335,87.674647,116.372821
Allactaga_elater,Allactaga_elater_DIPODIDAE_RODENTIA,Allactaga,DIPODIDAE,RODENTIA,Allactaga_elater,13,0,sampled,0.059,FALSE,FS2016,Reported,Ecological_Archives_E084-094_(2003),2,39.586022,41.23325042,62.64492701,28.386156,50.785888,44.155815,94.891161
Allactaga_euphratica,Allactaga_euphratica_DIPODIDAE_RODENTIA,Allactaga,DIPODIDAE,RODENTIA,Allactaga_euphratica,2,0,sampled,0.07,FALSE,FS2016,Reported,"Aulagnier_S,_Haffner_P,_Mitchell-Jones_AJ,_Moutou_F,_Zima,_J._The_Mammals_of_Europe,_North_Africa_and_the_Middle_East_(2009)",2,33.138545,33.14200681,41.43989066,28.739211,37.537879,36.008529,47.531562
Allactaga_firouzi,Allactaga_firouzi_DIPODIDAE_RODENTIA,Allactaga,DIPODIDAE,RODENTIA,Allactaga_firouzi,2,0,sampled,0.0986,FALSE,FS2016,Assumed_isometric_based_on_head-body_length,Fieldiana_Zoology_72:_65-73_(1978),2,31.8371045,31.71380704,51.81059048,31.636008,32.038201,51.732748,52.160823
Allactaga_hotsoni,Allactaga_hotsoni_DIPODIDAE_RODENTIA,Allactaga,DIPODIDAE,RODENTIA,Allactaga_hotsoni,11,0,sampled,0.0765,FALSE,FS2016,Reported,Ecological_Archives_E084-094_(2003),2,29.977836,29.84060393,61.79770191,26.388436,33.567236,56.5379,67.5809
Allactaga_major,Allactaga_major_DIPODIDAE_RODENTIA,Allactaga,DIPODIDAE,RODENTIA,Allactaga_major,11,0,sampled,0.35,FALSE,FS2016,Reported,Ecological_Archives_E084-094_(2003),2,48.717875,49.75981902,58.44097922,41.248249,56.187501,30.40488,86.53118
Allactaga_severtzovi,Allactaga_severtzovi_DIPODIDAE_RODENTIA,Allactaga,DIPODIDAE,RODENTIA,Allactaga_severtzovi,0,0,imputed,0.159,FALSE,FS2016,Reported,Ecological_Archives_E084-094_(2003),2,41.8030715,42.82807282,62.02241196,36.950253,46.65589,50.2245,78.07642
Allactaga_sibirica,Allactaga_sibirica_DIPODIDAE_RODENTIA,Allactaga,DIPODIDAE,RODENTIA,Allactaga_sibirica,13,0,sampled,0.0975,FALSE,FS2016,Reported,Ecological_Archives_E084-094_(2003),2,45.6250925,45.48696201,92.44041762,36.930802,54.319383,50.219505,127.23204
Allactaga_tetradactyla,Allactaga_tetradactyla_DIPODIDAE_RODENTIA,Allactaga,DIPODIDAE,RODENTIA,Allactaga_tetradactyla,0,0,imputed,0.052,FALSE,FS2016,Reported,Ecological_Archives_E084-094_(2003),2,31.386192,31.36368022,25.0225129,29.833793,32.938591,17.73597,30.563889
Allactaga_toussi,Allactaga_toussi_DIPODIDAE_RODENTIA,Allactaga,DIPODIDAE,RODENTIA,NA,2,0,sampled,0.073475222,TRUE,NA,NA,NA,2,36.633198,NA,NA,36.489024,36.777372,59.137004,59.49633
Allactaga_vinogradovi,Allactaga_vinogradovi_DIPODIDAE_RODENTIA,Allactaga,DIPODIDAE,RODENTIA,Allactaga_vinogradovi,0,0,imputed,0.0752,FALSE,FS2016,Reported,Acta_Zoologica_Lituanica_18:_228-239_(2008),2,42.744825,42.76522606,71.31469028,40.183975,45.305675,64.514424,75.619814
Allactaga_williamsi,Allactaga_williamsi_DIPODIDAE_RODENTIA,Allactaga,DIPODIDAE,RODENTIA,Allactaga_williamsi,2,0,sampled,0.1,FALSE,FS2016,Reported,"Aulagnier_S,_Haffner_P,_Mitchell-Jones_AJ,_Moutou_F,_Zima,_J._The_Mammals_of_Europe,_North_Africa_and_the_Middle_East_(2009)",2,37.375086,37.99353846,43.19396599,32.884036,41.866136,28.3689,69.5252
Allactodipus_bobrinskii,Allactodipus_bobrinskii_DIPODIDAE_RODENTIA,Allactodipus,DIPODIDAE,RODENTIA,Allactodipus_bobrinskii,11,0,sampled,0.07,FALSE,FS2016,Reported,Acta_Zoologica_Lituanica_18:_228-239_(2008),2,43.842902,44.72990261,62.89925829,39.356238,48.329566,55.072465,66.499167
Allenopithecus_nigroviridis,Allenopithecus_nigroviridis_CERCOPITHECIDAE_PRIMATES,Allenopithecus,CERCOPITHECIDAE,PRIMATES,Allenopithecus_nigroviridis,10,0,sampled,4.75,FALSE,FS2016,Reported,Ecological_Archives_E084-094_(2003),1,0.1329825,-0.141940468,20.53000558,-3.005605,3.27157,16.139063,25.167462
Allocebus_trichotis,Allocebus_trichotis_CHEIROGALEIDAE_PRIMATES,Allocebus,CHEIROGALEIDAE,PRIMATES,Allocebus_trichotis,1,0,sampled,0.0775,FALSE,FS2016,Reported,Ecological_Archives_E084-094_(2003),1,-16.735014,-16.45098474,49.27534755,-19.188864,-14.281164,48.2276,50.48378
Allocricetulus_curtatus,Allocricetulus_curtatus_CRICETIDAE_RODENTIA,Allocricetulus,CRICETIDAE,RODENTIA,Allocricetulus_curtatus,0,0,imputed,0.0478,FALSE,FS2016,Reported,Ecological_Archives_E084-094_(2003),2,45.609764,45.67915623,105.1163984,37.462032,53.757496,90.033348,118.808807
Allocricetulus_eversmanni,Allocricetulus_eversmanni_CRICETIDAE_RODENTIA,Allocricetulus,CRICETIDAE,RODENTIA,Allocricetulus_eversmanni,2,0,sampled,0.1156,FALSE,FS2016,Reported,Ecological_Archives_E084-094_(2003),2,50.70452,50.30110019,65.67127354,45.95004,55.459,45.2065,88.275723
Alouatta_arctoidea,Alouatta_arctoidea_ATELIDAE_PRIMATES,Alouatta,ATELIDAE,PRIMATES,NA,0,0,imputed,5.39,FALSE,FS2016,Reported,Primate_Conservation_9:_61-66(1988),1,8.252436,9.25922472,-66.96712939,4.943136,11.561736,-71.8233,-61.8436
Alouatta_belzebul,Alouatta_belzebul_ATELIDAE_PRIMATES,Alouatta,ATELIDAE,PRIMATES,Alouatta_belzebul,14,0,sampled,6.4,FALSE,FS2016,Reported,Ecological_Archives_E084-094_(2003),1,-5.167364,-5.341616912,-48.83640372,-10.702564,0.367836,-54.583,-34.7901
Alouatta_caraya,Alouatta_caraya_ATELIDAE_PRIMATES,Alouatta,ATELIDAE,PRIMATES,Alouatta_caraya,15,0,sampled,5.8625,FALSE,FS2016,Reported,Ecological_Archives_E084-094_(2003),0,-19.768664,-17.63712579,-53.11224722,-31.111664,-8.425664,-67.5199,-41.9429
Alouatta_discolor,Alouatta_discolor_ATELIDAE_PRIMATES,Alouatta,ATELIDAE,PRIMATES,NA,0,0,imputed,6.2628,FALSE,FS2016,Assumed_isometric_based_on_skull_size,Revista_Brasileira_de_Zoologia_23:_64-144_(2006),1,-5.390914,-6.332615833,-55.22830869,-10.019064,-0.762764,-58.6207,-51.0617
Alouatta_guariba,Alouatta_guariba_ATELIDAE_PRIMATES,Alouatta,ATELIDAE,PRIMATES,Alouatta_guariba,2,0,sampled,5.5892,FALSE,FS2016,Assumed_isometric_based_on_skull_size,Revista_Brasileira_de_Zoologia_23:_64-144_(2006),0,-22.265464,-23.07938339,-47.52202187,-32.336564,-12.194364,-55.0012,-38.144
Alouatta_juara,Alouatta_juara_ATELIDAE_PRIMATES,Alouatta,ATELIDAE,PRIMATES,NA,0,0,imputed,6.886,FALSE,FS2016,Assumed_isometric_based_on_skull_size,Revista_Brasileira_de_Zoologia_23:_64-144_(2006),1,-3.266371,-0.323949687,-71.90773462,-6.563013,0.030271,-69.591741,-59.9333
Alouatta_macconnelli,Alouatta_macconnelli_ATELIDAE_PRIMATES,Alouatta,ATELIDAE,PRIMATES,Alouatta_macconnelli,1,0,sampled,7.5548,FALSE,FS2016,Assumed_isometric_based_on_skull_size,Revista_Brasileira_de_Zoologia_23:_64-144_(2006),1,3.741986,2.816855711,-59.46820833,-3.356764,10.840736,-67.861,-49.8635
Alouatta_nigerrima,Alouatta_nigerrima_ATELIDAE_PRIMATES,Alouatta,ATELIDAE,PRIMATES,Alouatta_nigerrima,0,0,imputed,7.662,FALSE,FS2016,Assumed_isometric_based_on_skull_size,Revista_Brasileira_de_Zoologia_23:_64-144_(2006),1,-5.479964,-5.074617458,-58.35222907,-9.072464,-1.887464,-60.7294,-55.1808
Alouatta_palliata,Alouatta_palliata_ATELIDAE_PRIMATES,Alouatta,ATELIDAE,PRIMATES,Alouatta_palliata,16,0,sampled,7.275,FALSE,FS2016,Reported,Ecological_Archives_E084-094_(2003),1,7.121686,9.711646866,-83.28730695,-4.475664,18.719036,-95.5735,-74.7296
Alouatta_pigra,Alouatta_pigra_ATELIDAE_PRIMATES,Alouatta,ATELIDAE,PRIMATES,Alouatta_pigra,1,0,sampled,7,FALSE,FS2016,Reported,Ecological_Archives_E084-094_(2003),1,18.302786,18.09400189,-89.7209069,14.995736,21.609836,-92.9767,-86.7365
Alouatta_puruensis,Alouatta_puruensis_ATELIDAE_PRIMATES,Alouatta,ATELIDAE,PRIMATES,NA,0,0,imputed,6.4498,FALSE,FS2016,Assumed_isometric_based_on_skull_size,Revista_Brasileira_de_Zoologia_23:_64-144_(2006),1,-8.201164,-8.401205256,-64.15569404,-13.744364,-2.657964,-72.6361,-58.2019
Alouatta_sara,Alouatta_sara_ATELIDAE_PRIMATES,Alouatta,ATELIDAE,PRIMATES,Alouatta_sara,19,0,sampled,6.611,FALSE,FS2016,Reported,Ecological_Archives_E084-094_(2003),1,-14.068964,-14.28630613,-65.8970416,-18.451864,-9.686064,-69.5406,-62.1296
Alouatta_seniculus,Alouatta_seniculus_ATELIDAE_PRIMATES,Alouatta,ATELIDAE,PRIMATES,Alouatta_seniculus,3,0,sampled,6.1455,FALSE,FS2016,Reported,Ecological_Archives_E084-094_(2003),1,0.604136,NA,NA,-10.537464,11.745736,-78.7532,-66.8685
Alouatta_ululata,Alouatta_ululata_ATELIDAE_PRIMATES,Alouatta,ATELIDAE,PRIMATES,NA,0,0,imputed,6.6821,FALSE,FS2016,Assumed_isometric_based_on_skull_size,Revista_Brasileira_de_Zoologia_23:_64-144_(2006),1,-3.775014,-3.72580455,-41.81867975,-5.219464,-2.330564,-44.0614,-39.4805
Alticola_albicaudus,Alticola_albicaudus_CRICETIDAE_RODENTIA,Alticola,CRICETIDAE,RODENTIA,Alticola_albicaudus,2,0,sampled,0.031,FALSE,FS2016,Assumed_isometric_based_on_head-body_length,Proceedings_of_the_Unites_States_National_Museum_17:_1-16_(1894),2,34.390936,34.35840462,77.06171805,32.401836,36.380036,75.1511,79.1293
Alticola_argentatus,Alticola_argentatus_CRICETIDAE_RODENTIA,Alticola,CRICETIDAE,RODENTIA,Alticola_argentatus,4,0,sampled,0.0377,FALSE,FS2016,Reported,"Smith_AT,_Xie_Y,_Hoffmann_RS,_Lunde_D,_MacKinnon_J,_Wilson_DE,_Wozencraft_WD._A_Guide_to_the_Mammals_of_China_(2008)",2,40.932336,41.15208697,79.25013795,33.404336,48.460336,66.16,103.3792
Alticola_barakshin,Alticola_barakshin_CRICETIDAE_RODENTIA,Alticola,CRICETIDAE,RODENTIA,Alticola_barakshin,4,0,sampled,0.035,FALSE,FS2016,Reported,"Smith_AT,_Xie_Y,_Hoffmann_RS,_Lunde_D,_MacKinnon_J,_Wilson_DE,_Wozencraft_WD._A_Guide_to_the_Mammals_of_China_(2008)",2,46.6641975,46.27767651,94.46351254,42.738999,50.589396,88.563264,104.909014
Alticola_lemminus,Alticola_lemminus_CRICETIDAE_RODENTIA,Alticola,CRICETIDAE,RODENTIA,Alticola_lemminus,4,0,sampled,0.0155,FALSE,FS2016,Assumed_isometric_based_on_head-body_length,Proceedings_of_the_Academy_of_Natural_Sciences_of_Philadelphia_1898:_368-371_(1898),2,63.611436,63.54566915,133.2311175,54.339836,72.883036,-179.999998,180
Alticola_macrotis,Alticola_macrotis_CRICETIDAE_RODENTIA,Alticola,CRICETIDAE,RODENTIA,Alticola_macrotis,4,0,sampled,0.036,FALSE,FS2016,Reported,"Smith_AT,_Xie_Y,_Hoffmann_RS,_Lunde_D,_MacKinnon_J,_Wilson_DE,_Wozencraft_WD._A_Guide_to_the_Mammals_of_China_(2008)",2,51.575574,51.46524997,95.81311139,46.462512,56.688636,83.335619,112.262919
Alticola_montosa,Alticola_montosa_CRICETIDAE_RODENTIA,Alticola,CRICETIDAE,RODENTIA,Alticola_montosa,1,0,sampled,0.0197,FALSE,FS2016,Assumed_isometric_based_on_head-body_length,Proceedings_of_the_Academy_of_Natural_Sciences_of_Philadelphia_1898:_368-371_(1898),2,34.466086,34.44323747,75.04482965,33.278336,35.653836,69.9481,75.9634
Alticola_olchonensis,Alticola_olchonensis_CRICETIDAE_RODENTIA,Alticola,CRICETIDAE,RODENTIA,Alticola_olchonensis,4,0,sampled,0.043531007,TRUE,NA,NA,NA,2,53.0681055,53.09441499,107.0971275,52.691452,53.444759,106.301337,107.810204
Alticola_roylei,Alticola_roylei_CRICETIDAE_RODENTIA,Alticola,CRICETIDAE,RODENTIA,Alticola_roylei,0,0,imputed,0.037,FALSE,FS2016,Reported,Ecological_Archives_E084-094_(2003),2,31.305136,31.36277774,78.3098292,29.742036,32.868236,76.7613,80.3804
Alticola_semicanus,Alticola_semicanus_CRICETIDAE_RODENTIA,Alticola,CRICETIDAE,RODENTIA,Alticola_semicanus,4,0,sampled,0.0532,FALSE,FS2016,Assumed_isometric_based_on_head-body_length,"Smith_AT,_Xie_Y,_Hoffmann_RS,_Lunde_D,_MacKinnon_J,_Wilson_DE,_Wozencraft_WD._A_Guide_to_the_Mammals_of_China_(2008)",2,46.766278,47.25093285,104.7719079,42.594745,50.937811,92.1252,117.123947
Alticola_stoliczkanus,Alticola_stoliczkanus_CRICETIDAE_RODENTIA,Alticola,CRICETIDAE,RODENTIA,Alticola_stoliczkanus,1,0,sampled,0.0275,FALSE,FS2016,Assumed_isometric_based_on_head-body_length,"Smith_AT,_Xie_Y,_Hoffmann_RS,_Lunde_D,_MacKinnon_J,_Wilson_DE,_Wozencraft_WD._A_Guide_to_the_Mammals_of_China_(2008)",2,34.237936,34.79014129,88.41702044,27.267236,41.208636,73.9059,101.4332
Alticola_strelzowi,Alticola_strelzowi_CRICETIDAE_RODENTIA,Alticola,CRICETIDAE,RODENTIA,Alticola_strelzowi,3,0,sampled,0.05,FALSE,FS2016,Assumed_isometric_based_on_head-body_length,"Smith_AT,_Xie_Y,_Hoffmann_RS,_Lunde_D,_MacKinnon_J,_Wilson_DE,_Wozencraft_WD._A_Guide_to_the_Mammals_of_China_(2008)",2,48.901735,49.04578088,82.79436041,45.86102,51.94245,71.563566,96.678953
Alticola_tuvinicus,Alticola_tuvinicus_CRICETIDAE_RODENTIA,Alticola,CRICETIDAE,RODENTIA,Alticola_tuvinicus,4,0,sampled,0.043531007,TRUE,NA,NA,NA,2,51.6435775,51.8133369,91.49296337,48.125699,55.161456,88.041024,107.793053
Amblysomus_corriae,Amblysomus_corriae_CHRYSOCHLORIDAE_AFROSORICIDA,Amblysomus,CHRYSOCHLORIDAE,AFROSORICIDA,Amblysomus_corriae,0,0,imputed,0.0521,FALSE,FS2016,Assumed_isometric_based_on_skull_size,"Bronner_Systematic_revision_of_the_golden_mole_genera_:_Amblysomus,_Chlorotalpa_and_Calcochloris_(Insectivora_:_Chrysochloromorpha_;_Chrysochloridae)_Thesis_(Ph.D.)-University_of_Natal_(1995)",2,-33.896309,-33.88461512,21.0927218,-34.839828,-32.95279,18.754037,24.31908
Amblysomus_hottentotus,Amblysomus_hottentotus_CHRYSOCHLORIDAE_AFROSORICIDA,Amblysomus,CHRYSOCHLORIDAE,AFROSORICIDA,Amblysomus_hottentotus,25,0,sampled,0.0526,FALSE,FS2016,Reported,Mammalia_64_:41–54_(2000),2,-29.987429,-30.32428484,28.92608551,-34.052528,-25.92233,24.745356,32.596313
Amblysomus_marleyi,Amblysomus_marleyi_CHRYSOCHLORIDAE_AFROSORICIDA,Amblysomus,CHRYSOCHLORIDAE,AFROSORICIDA,Amblysomus_marleyi,1,0,sampled,0.036,FALSE,FS2016,Assumed_isometric_based_on_skull_size,"Bronner_Systematic_revision_of_the_golden_mole_genera_:_Amblysomus,_Chlorotalpa_and_Calcochloris_(Insectivora_:_Chrysochloromorpha_;_Chrysochloridae)_Thesis_(Ph.D.)-University_of_Natal_(1995)",2,-27.249192,-27.22279831,32.05294938,-27.681109,-26.817275,31.946701,32.149008
Amblysomus_robustus,Amblysomus_robustus_CHRYSOCHLORIDAE_AFROSORICIDA,Amblysomus,CHRYSOCHLORIDAE,AFROSORICIDA,Amblysomus_robustus,0,0,imputed,0.0795,FALSE,FS2016,Reported,Ecological_Archives_E084-094_(2003),2,-25.167003,-25.26264424,30.28845225,-25.840953,-24.493053,29.946709,30.98206
Amblysomus_septentrionalis,Amblysomus_septentrionalis_CHRYSOCHLORIDAE_AFROSORICIDA,Amblysomus,CHRYSOCHLORIDAE,AFROSORICIDA,Amblysomus_septentrionalis,1,0,sampled,0.0639,FALSE,FS2016,Assumed_isometric_based_on_skull_size,"Bronner_Systematic_revision_of_the_golden_mole_genera_:_Amblysomus,_Chlorotalpa_and_Calcochloris_(Insectivora_:_Chrysochloromorpha_;_Chrysochloridae)_Thesis_(Ph.D.)-University_of_Natal_(1995)",2,-26.993876,-26.59427751,30.0380324,-28.681583,-25.306169,27.428751,31.339478
Ametrida_centurio,Ametrida_centurio_PHYLLOSTOMIDAE_CHIROPTERA,Ametrida,PHYLLOSTOMIDAE,CHIROPTERA,Ametrida_centurio,6,0,sampled,0.0103,FALSE,FS2016,Reported,Ecological_Archives_E084-094_(2003),1,-2.048364,-1.301412566,-60.16296264,-16.560064,12.463336,-79.0544,-46.3221
Ammodillus_imbellis,Ammodillus_imbellis_MURIDAE_RODENTIA,Ammodillus,MURIDAE,RODENTIA,Ammodillus_imbellis,0,0,imputed,0.05,FALSE,FS2016,Reported,Ecological_Archives_E084-094_(2003),1,6.4858755,6.612121393,46.64475381,2.65595,10.315801,44.90162,49.334808
Ammodorcas_clarkei,Ammodorcas_clarkei_BOVIDAE_CETARTIODACTYLA,Ammodorcas,BOVIDAE,CETARTIODACTYLA,Ammodorcas_clarkei,0,0,imputed,28.0498,FALSE,FS2016,Reported,Ecological_Archives_E084-094_(2003),1,6.149384,6.275595771,46.05341335,4.338236,7.960532,43.9231,48.7834
Ammospermophilus_harrisii,Ammospermophilus_harrisii_SCIURIDAE_RODENTIA,Ammospermophilus,SCIURIDAE,RODENTIA,Ammospermophilus_harrisii,2,0,sampled,0.122,FALSE,FS2016,Reported,Ecological_Archives_E084-094_(2003),2,32.241694,32.47139787,-111.8289811,28.334508,36.14888,-114.734875,-108.437136
Ammospermophilus_interpres,Ammospermophilus_interpres_SCIURIDAE_RODENTIA,Ammospermophilus,SCIURIDAE,RODENTIA,Ammospermophilus_interpres,1,0,sampled,0.1103,FALSE,FS2016,Reported,Ecological_Archives_E084-094_(2003),2,30.1210545,29.44018005,-103.5502881,24.726092,35.516017,-107.460418,-100.816697
Ammospermophilus_leucurus,Ammospermophilus_leucurus_SCIURIDAE_RODENTIA,Ammospermophilus,SCIURIDAE,RODENTIA,Ammospermophilus_leucurus,1,0,sampled,0.1205,FALSE,FS2016,Reported,National_Audubon_Society._National_Audubon_Society_Field_Guide_to_North_American_Mammals_(1996),0,33.5043765,37.23388248,-114.1270769,22.867132,44.141621,-120.496479,-106.304029
Ammospermophilus_nelsoni,Ammospermophilus_nelsoni_SCIURIDAE_RODENTIA,Ammospermophilus,SCIURIDAE,RODENTIA,Ammospermophilus_nelsoni,0,0,imputed,0.1604,FALSE,FS2016,Reported,Ecological_Archives_E084-094_(2003),2,35.882777,35.6869609,-119.8869462,34.853063,36.912491,-120.925738,-118.890216
Ammotragus_lervia,Ammotragus_lervia_BOVIDAE_CETARTIODACTYLA,Ammotragus,BOVIDAE,CETARTIODACTYLA,Ammotragus_lervia,4,0,sampled,48,FALSE,FS2016,Reported,Ecological_Archives_E084-094_(2003),0,25.015586,25.5289767,4.683135564,14.368636,35.662536,-15.4624,36.2638
Amorphochilus_schnablii,Amorphochilus_schnablii_FURIPTERIDAE_CHIROPTERA,Amorphochilus,FURIPTERIDAE,CHIROPTERA,Amorphochilus_schnablii,0,0,imputed,0.0033,FALSE,FS2016,Reported,Ecological_Archives_E084-094_(2003),1,-11.556464,-11.5490023,-75.90995776,-21.741764,-1.371164,-81.3267,-69.1083
Amphinectomys_savamis,Amphinectomys_savamis_CRICETIDAE_RODENTIA,Amphinectomys,CRICETIDAE,RODENTIA,Amphinectomys_savamis,2,0,sampled,0.2173,FALSE,FS2016,Reported,Zoologicheskii_Zhurnal_73:_195-208_(1994),1,-4.714614,-4.713882624,-73.58759131,-4.981464,-4.447764,-73.8166,-73.3678
Anathana_ellioti,Anathana_ellioti_TUPAIIDAE_SCANDENTIA,Anathana,TUPAIIDAE,SCANDENTIA,Anathana_ellioti,0,0,imputed,0.16,FALSE,FS2016,Reported,Ecological_Archives_E084-094_(2003),0,16.008686,17.83067553,78.99705448,8.069036,23.948336,72.6174,87.7566
Andalgalomys_olrogi,Andalgalomys_olrogi_CRICETIDAE_RODENTIA,Andalgalomys,CRICETIDAE,RODENTIA,Andalgalomys_olrogi,1,0,sampled,0.0329,FALSE,FS2016,Reported,Ecological_Archives_E084-094_(2003),2,-30.589464,-30.64373685,-66.40150613,-33.692864,-27.486064,-67.2269,-65.3871
Andalgalomys_pearsoni,Andalgalomys_pearsoni_CRICETIDAE_RODENTIA,Andalgalomys,CRICETIDAE,RODENTIA,Andalgalomys_pearsoni,4,0,sampled,0.0254,FALSE,FS2016,Reported,Ecological_Archives_E084-094_(2003),1,-20.819214,-20.61087571,-60.57230722,-23.109465,-18.528963,-62.667999,-58.5009
Andinomys_edax,Andinomys_edax_CRICETIDAE_RODENTIA,Andinomys,CRICETIDAE,RODENTIA,Andinomys_edax,6,0,sampled,0.0697,FALSE,FS2016,Reported,Ecological_Archives_E084-094_(2003),0,-22.591064,-21.02117463,-66.16508401,-28.947864,-16.234264,-70.1631,-64.1514
Anisomys_imitator,Anisomys_imitator_MURIDAE_RODENTIA,Anisomys,MURIDAE,RODENTIA,Anisomys_imitator,3,0,sampled,0.5105,FALSE,FS2016,Reported,Ecological_Archives_E084-094_(2003),1,-6.593496,-5.59853028,142.4785622,-10.167592,-3.0194,135.253687,149.701621
Anomalurus_beecrofti,Anomalurus_beecrofti_ANOMALURIDAE_RODENTIA,Anomalurus,ANOMALURIDAE,RODENTIA,Anomalurus_beecrofti,25,0,sampled,0.389,FALSE,FS2016,Reported,Ecological_Archives_E084-094_(2003),1,1.906486,1.787097661,13.02002663,-6.773064,10.586036,-13.9126,29.8176
Anomalurus_derbianus,Anomalurus_derbianus_ANOMALURIDAE_RODENTIA,Anomalurus,ANOMALURIDAE,RODENTIA,Anomalurus_derbianus,0,0,imputed,0.65,FALSE,FS2016,Reported,Ecological_Archives_E084-094_(2003),1,-2.648764,-2.941517869,19.61388801,-15.098864,9.801336,-13.2967,38.7523
Anomalurus_pelii,Anomalurus_pelii_ANOMALURIDAE_RODENTIA,Anomalurus,ANOMALURIDAE,RODENTIA,Anomalurus_pelii,0,0,imputed,1.77,FALSE,FS2016,Reported,Ecological_Archives_E084-094_(2003),1,6.372704,6.277504797,-4.50612068,4.609022,8.136386,-8.724601,0.2395
Anomalurus_pusillus,Anomalurus_pusillus_ANOMALURIDAE_RODENTIA,Anomalurus,ANOMALURIDAE,RODENTIA,Anomalurus_pusillus,0,0,imputed,0.25,FALSE,FS2016,Reported,Ecological_Archives_E084-094_(2003),1,0.638636,0.834664288,21.92436361,-3.105464,4.382736,9.0848,30.3204
Anonymomys_mindorensis,Anonymomys_mindorensis_MURIDAE_RODENTIA,Anonymomys,MURIDAE,RODENTIA,Anonymomys_mindorensis,0,0,imputed,0.0596,FALSE,FS2016,Assumed_isometric_based_on_head-body_length,Bulletin_of_the_American_Museum_of_Natural_History_168:_225-334_(1981),1,13.220436,13.21373175,120.9785295,13.097436,13.343436,120.8413,121.1149
Anotomys_leander,Anotomys_leander_CRICETIDAE_RODENTIA,Anotomys,CRICETIDAE,RODENTIA,Anotomys_leander,0,0,imputed,0.0664,FALSE,FS2016,Reported,Ecological_Archives_E084-094_(2003),1,-0.290764,-0.287917232,-78.19785602,-0.741364,0.159836,-78.6609,-77.7553
Anoura_canishina,Anoura_canishina_PHYLLOSTOMIDAE_CHIROPTERA,Anoura,PHYLLOSTOMIDAE,CHIROPTERA,NA,0,0,imputed,0.020727878,TRUE,NA,NA,NA,1,6.2357885,NA,NA,1.393661,11.077916,-77.462574,-73.853778
Anoura_caudifer,Anoura_caudifer_PHYLLOSTOMIDAE_CHIROPTERA,Anoura,PHYLLOSTOMIDAE,CHIROPTERA,Anoura_caudifer,11,0,sampled,0.0101,FALSE,FS2016,Reported,"Eisenberg_JF,_Redford_KH_Mammals_of_the_Neotropics_(Volume_3_):_The_Central_Neotropics:_Ecuador,_Peru,_Bolivia,_Brazil_(2000)",0,-9.0620635,-7.734048193,-61.59832587,-30.32603,12.201903,-79.211788,-39.689907
Anoura_cultrata,Anoura_cultrata_PHYLLOSTOMIDAE_CHIROPTERA,Anoura,PHYLLOSTOMIDAE,CHIROPTERA,Anoura_cultrata,1,0,sampled,0.0169,FALSE,FS2016,Reported,Ecological_Archives_E084-094_(2003),1,-3.094714,-0.739862391,-74.70941476,-16.927864,10.738436,-84.861,-66.1274
Anoura_fistulata,Anoura_fistulata_PHYLLOSTOMIDAE_CHIROPTERA,Anoura,PHYLLOSTOMIDAE,CHIROPTERA,NA,0,0,imputed,0.013,FALSE,FS2016,Reported,Occasional_Papers_of_the_Museum_of_Texas_Tech_University_276:_2-10_(2008),1,-1.938214,-1.807221207,-78.29577999,-4.528664,0.652236,-79.1536,-77.3639
Anoura_geoffroyi,Anoura_geoffroyi_PHYLLOSTOMIDAE_CHIROPTERA,Anoura,PHYLLOSTOMIDAE,CHIROPTERA,Anoura_geoffroyi,20,0,sampled,0.0146,FALSE,FS2016,Reported,Ecological_Archives_E084-094_(2003),2,0.251446,-4.063751721,-63.74410037,-25.485044,25.987936,-109.017193,-34.790123
Anoura_latidens,Anoura_latidens_PHYLLOSTOMIDAE_CHIROPTERA,Anoura,PHYLLOSTOMIDAE,CHIROPTERA,Anoura_latidens,1,0,sampled,0.0147,FALSE,FS2016,Reported,Ecological_Archives_E084-094_(2003),1,-0.273064,3.266558511,-71.14279923,-11.599264,11.053136,-79.8806,-59.0119
Anoura_luismanueli,Anoura_luismanueli_PHYLLOSTOMIDAE_CHIROPTERA,Anoura,PHYLLOSTOMIDAE,CHIROPTERA,Anoura_luismanueli,0,0,imputed,0.0085,FALSE,FS2016,Reported,Tropical_Zoology_7:_73-86_(1994),1,6.500036,6.739731008,-72.47886134,3.209236,9.790836,-74.7097,-69.7217
Anourosorex_assamensis,Anourosorex_assamensis_SORICIDAE_EULIPOTYPHLA,Anourosorex,SORICIDAE,EULIPOTYPHLA,Anourosorex_assamensis,0,0,imputed,0.0252,FALSE,FS2016,Assumed_isometric_based_on_head-body_length,Mammal_Study_27:_113-120.,2,26.446786,25.51953524,92.74656422,24.484436,28.409136,90.4312,95.1085
Anourosorex_schmidi,Anourosorex_schmidi_SORICIDAE_EULIPOTYPHLA,Anourosorex,SORICIDAE,EULIPOTYPHLA,Anourosorex_schmidi,0,0,imputed,0.0372,FALSE,FS2016,Assumed_isometric_based_on_mandible_size,Mammal_Study_27:_113-120.,2,27.654336,27.62116507,91.01492222,27.211936,28.096736,88.1284,96.486
Anourosorex_squamipes,Anourosorex_squamipes_SORICIDAE_EULIPOTYPHLA,Anourosorex,SORICIDAE,EULIPOTYPHLA,Anourosorex_squamipes,7,0,sampled,0.02,FALSE,FS2016,Reported,Ecological_Archives_E084-094_(2003),0,26.4681355,27.3291465,103.6575396,18.583036,34.353235,92.8087,111.4741
Anourosorex_yamashinai,Anourosorex_yamashinai_SORICIDAE_EULIPOTYPHLA,Anourosorex,SORICIDAE,EULIPOTYPHLA,Anourosorex_yamashinai,5,0,sampled,0.0114,FALSE,FS2016,Assumed_isometric_based_on_head-body_length,Mammal_Study_27:_113-120.,0,23.60003,23.74541332,120.9598739,21.9018,25.29826,120.047523,122.000443
Antechinomys_laniger,Antechinomys_laniger_DASYURIDAE_DASYUROMORPHIA,Antechinomys,DASYURIDAE,DASYUROMORPHIA,Antechinomys_laniger,4,0,sampled,0.025,FALSE,FS2016,Reported,Ecological_Archives_E084-094_(2003),0,-26.3446755,-26.43321088,132.5933039,-33.22263,-19.466721,114.626293,148.672799
Antechinus_adustus,Antechinus_adustus_DASYURIDAE_DASYUROMORPHIA,Antechinus,DASYURIDAE,DASYUROMORPHIA,Antechinus_adustus,0,0,imputed,0.0282,FALSE,FS2016,Reported,"Van_Dyck_S,_Straham_R._The_Mammals_of_Australia_Third_edition_(2008)",1,-17.805493,-17.90345257,145.7581413,-19.311601,-16.299385,145.149405,146.467739
Antechinus_agilis,Antechinus_agilis_DASYURIDAE_DASYUROMORPHIA,Antechinus,DASYURIDAE,DASYUROMORPHIA,Antechinus_agilis,1,0,sampled,0.024,FALSE,FS2016,Reported,"Van_Dyck_S,_Straham_R._The_Mammals_of_Australia_Third_edition_(2008)",2,-36.44124,-36.91296816,146.807535,-39.138939,-33.743541,140.904385,150.328125
Antechinus_argentus,Antechinus_argentus_DASYURIDAE_DASYUROMORPHIA,Antechinus,DASYURIDAE,DASYUROMORPHIA,NA,0,0,imputed,0.072318605,TRUE,NA,NA,NA,2,-24.393227,NA,NA,-24.556852,-24.229602,150.863115,151.222441
Antechinus_arktos,Antechinus_arktos_DASYURIDAE_DASYUROMORPHIA,Antechinus,DASYURIDAE,DASYUROMORPHIA,NA,0,0,imputed,0.065786422,TRUE,NA,NA,NA,2,-28.2414385,NA,NA,-28.399714,-28.083163,153.084393,153.443719
Antechinus_bellus,Antechinus_bellus_DASYURIDAE_DASYUROMORPHIA,Antechinus,DASYURIDAE,DASYUROMORPHIA,Antechinus_bellus,2,0,sampled,0.0445,FALSE,FS2016,Reported,Ecological_Archives_E084-094_(2003),1,-12.370749,-12.92567211,133.2876199,-13.625665,-11.115833,130.615687,135.165359
Antechinus_flavipes,Antechinus_flavipes_DASYURIDAE_DASYUROMORPHIA,Antechinus,DASYURIDAE,DASYUROMORPHIA,Antechinus_flavipes,7,0,sampled,0.045,FALSE,FS2016,Reported,Ecological_Archives_E084-094_(2003),0,-26.7949455,-29.82642207,146.4423889,-38.26991,-15.319981,114.975227,153.639236
Antechinus_godmani,Antechinus_godmani_DASYURIDAE_DASYUROMORPHIA,Antechinus,DASYURIDAE,DASYUROMORPHIA,Antechinus_godmani,5,0,sampled,0.0765,FALSE,FS2016,Reported,Ecological_Archives_E084-094_(2003),1,-17.6410505,-17.61387596,145.6972148,-18.299226,-16.982875,145.529121,145.914762
Antechinus_leo,Antechinus_leo_DASYURIDAE_DASYUROMORPHIA,Antechinus,DASYURIDAE,DASYUROMORPHIA,Antechinus_leo,1,0,sampled,0.074,FALSE,FS2016,Reported,Ecological_Archives_E084-094_(2003),1,-13.1476395,-13.14901943,143.3574491,-13.859418,-12.435861,143.073331,143.600479
Antechinus_minimus,Antechinus_minimus_DASYURIDAE_DASYUROMORPHIA,Antechinus,DASYURIDAE,DASYUROMORPHIA,Antechinus_minimus,4,0,sampled,0.0535,FALSE,FS2016,Reported,Ecological_Archives_E084-094_(2003),2,-40.411464,-41.45989193,146.0435544,-43.643974,-37.178954,139.76944,148.480545
Antechinus_mysticus,Antechinus_mysticus_DASYURIDAE_DASYUROMORPHIA,Antechinus,DASYURIDAE,DASYUROMORPHIA,NA,0,0,imputed,0.072090535,TRUE,NA,NA,NA,0,-24.6097935,NA,NA,-28.358042,-20.861545,148.298428,153.362796
Antechinus_stuartii,Antechinus_stuartii_DASYURIDAE_DASYUROMORPHIA,Antechinus,DASYURIDAE,DASYUROMORPHIA,Antechinus_stuartii,2,0,sampled,0.0275,FALSE,FS2016,Reported,Ecological_Archives_E084-094_(2003),2,-31.9595285,-32.00978504,151.4539481,-35.871636,-28.047421,149.209857,153.622894
Antechinus_subtropicus,Antechinus_subtropicus_DASYURIDAE_DASYUROMORPHIA,Antechinus,DASYURIDAE,DASYUROMORPHIA,Antechinus_subtropicus,0,0,imputed,0.0331,FALSE,FS2016,Reported,"Van_Dyck_S,_Straham_R._The_Mammals_of_Australia_Third_edition_(2008)",2,-28.3064215,-27.60792928,152.9717717,-30.436058,-26.176785,152.514536,153.551934
Antechinus_swainsonii,Antechinus_swainsonii_DASYURIDAE_DASYUROMORPHIA,Antechinus,DASYURIDAE,DASYUROMORPHIA,Antechinus_swainsonii,5,0,sampled,0.053,FALSE,FS2016,Reported,Ecological_Archives_E084-094_(2003),2,-35.8979785,-35.68942915,148.9635081,-43.643974,-28.151983,141.049412,153.639236
Antechinus_vandycki,Antechinus_vandycki_DASYURIDAE_DASYUROMORPHIA,Antechinus,DASYURIDAE,DASYUROMORPHIA,NA,0,0,imputed,0.073630134,TRUE,NA,NA,NA,2,-43.083889,NA,NA,-43.247223,-42.920555,147.735902,148.055496
Anthops_ornatus,Anthops_ornatus_HIPPOSIDERIDAE_CHIROPTERA,Anthops,HIPPOSIDERIDAE,CHIROPTERA,Anthops_ornatus,2,0,sampled,0.008,FALSE,FS2016,Reported,Ecological_Archives_E084-094_(2003),1,-7.678964,-7.571773097,157.5421115,-9.949364,-5.408564,154.6681,160.8339
Antidorcas_marsupialis,Antidorcas_marsupialis_BOVIDAE_CETARTIODACTYLA,Antidorcas,BOVIDAE,CETARTIODACTYLA,Antidorcas_marsupialis,4,0,sampled,31.5,FALSE,FS2016,Reported,Ecological_Archives_E084-094_(2003),0,-23.124564,-24.99609585,20.88701817,-33.727464,-12.521664,11.7156,30.8321
Antilocapra_americana,Antilocapra_americana_ANTILOCAPRIDAE_CETARTIODACTYLA,Antilocapra,ANTILOCAPRIDAE,CETARTIODACTYLA,Antilocapra_americana,26,0,sampled,46.0829,FALSE,FS2016,Reported,Ecological_Archives_E084-094_(2003),0,36.114936,40.95667146,-106.2546953,20.851736,51.378136,-157.0304,-95.0231
Antilope_cervicapra,Antilope_cervicapra_BOVIDAE_CETARTIODACTYLA,Antilope,BOVIDAE,CETARTIODACTYLA,Antilope_cervicapra,4,0,sampled,37.5,FALSE,FS2016,Reported,Ecological_Archives_E084-094_(2003),0,18.407591,21.00745571,77.40946778,8.069046,28.746136,68.8613,87.0637
Antrozous_pallidus,Antrozous_pallidus_VESPERTILIONIDAE_CHIROPTERA,Antrozous,VESPERTILIONIDAE,CHIROPTERA,Antrozous_pallidus,22,0,sampled,0.0208,FALSE,FS2016,Reported,Ecological_Archives_E084-094_(2003),0,33.902336,33.6855961,-109.2229535,17.712036,50.092636,-124.5607,-74.1318
Aonyx_capensis,Aonyx_capensis_MUSTELIDAE_CARNIVORA,Aonyx,MUSTELIDAE,CARNIVORA,Aonyx_capensis,9,0,sampled,18.9998,FALSE,FS2016,Reported,Ecological_Archives_E084-094_(2003),0,-8.778264,-2.750702393,21.07004662,-34.839764,17.283236,-17.5348,40.9249
Aonyx_cinerea,Aonyx_cinerea_MUSTELIDAE_CARNIVORA,Aonyx,MUSTELIDAE,CARNIVORA,Aonyx_cinerea,8,0,sampled,1.7476,FALSE,FS2016,Reported,Ecological_Archives_E084-094_(2003),0,11.431986,NA,NA,-8.532264,31.396236,74.6058,120.337082
Aonyx_congicus,Aonyx_congicus_MUSTELIDAE_CARNIVORA,Aonyx,MUSTELIDAE,CARNIVORA,NA,0,0,imputed,23.8002,FALSE,FS2016,Reported,Ecological_Archives_E084-094_(2003),1,-1.351651,-1.25350845,19.69965627,-9.174129,6.470827,8.6955,31.3805
Aotus_azarae,Aotus_azarae_AOTIDAE_PRIMATES,Aotus,AOTIDAE,PRIMATES,Aotus_azarae,15,0,sampled,0.963,FALSE,FS2016,Reported,Ecological_Archives_E084-094_(2003),0,-12.835364,-11.42246546,-55.88807798,-27.259564,1.588836,-70.5879,-43.1815
Aotus_brumbacki,Aotus_brumbacki_AOTIDAE_PRIMATES,Aotus,AOTIDAE,PRIMATES,NA,0,0,imputed,0.8,FALSE,FS2016,Reported,Ecological_Archives_E084-094_(2003),1,4.723986,4.250306761,-72.23951036,2.363536,7.084436,-74.6161,-70.4309
Aotus_griseimembra,Aotus_griseimembra_AOTIDAE_PRIMATES,Aotus,AOTIDAE,PRIMATES,NA,16,0,sampled,0.966,FALSE,FS2016,Reported,"Dixon_AF._Primate_Sexuality:_Comparative_Studies_of_the_Prosimians,_Monkeys,_Apes,_and_Human_Beings_(1998)",1,6.649786,8.231157512,-74.04920552,1.823536,11.476036,-76.1466,-70.3107
Aotus_jorgehernandezi,Aotus_jorgehernandezi_AOTIDAE_PRIMATES,Aotus,AOTIDAE,PRIMATES,NA,0,0,imputed,0.873,FALSE,FS2016,As_relative_of_suggested_similar_size,No_morphology_mentioned_in_description_in_Primate_Conservation_22:_55–70_(2007)_and_can_at_present_not_be_seperated_morphologically_from_Aotus_lemurinus,1,5.073086,5.073079514,-76.44133101,4.897636,5.248536,-76.6168,-76.2658
Aotus_lemurinus,Aotus_lemurinus_AOTIDAE_PRIMATES,Aotus,AOTIDAE,PRIMATES,Aotus_lemurinus,3,0,sampled,0.873,FALSE,FS2016,Reported,Ecological_Archives_E084-094_(2003),1,1.856536,4.013234314,-75.19745318,-4.683164,8.396236,-79.2488,-71.9393
Aotus_miconax,Aotus_miconax_AOTIDAE_PRIMATES,Aotus,AOTIDAE,PRIMATES,Aotus_miconax,0,0,imputed,0.8,FALSE,FS2016,Reported,Ecological_Archives_E084-094_(2003),1,-7.875814,-7.522796652,-77.21188174,-10.504064,-5.247564,-78.7337,-75.8179
Aotus_nancymaae,Aotus_nancymaae_AOTIDAE_PRIMATES,Aotus,AOTIDAE,PRIMATES,Aotus_nancymaae,17,0,sampled,0.788,FALSE,FS2016,Reported,Ecological_Archives_E084-094_(2003),1,-5.441514,-5.571364974,-72.68469043,-8.436764,-2.446264,-78.6439,-65.8032
Aotus_nigriceps,Aotus_nigriceps_AOTIDAE_PRIMATES,Aotus,AOTIDAE,PRIMATES,Aotus_nigriceps,2,0,sampled,1.06,FALSE,FS2016,Reported,Ecological_Archives_E084-094_(2003),1,-7.891114,-8.266246655,-64.85783253,-13.833264,-1.948964,-75.9874,-54.907
Aotus_trivirgatus,Aotus_trivirgatus_AOTIDAE_PRIMATES,Aotus,AOTIDAE,PRIMATES,Aotus_trivirgatus,18,0,sampled,0.9,FALSE,FS2016,Reported,Ecological_Archives_E084-094_(2003),1,2.279786,1.714600414,-62.65636346,-3.250264,7.809836,-67.8657,-55.4334
Aotus_vociferans,Aotus_vociferans_AOTIDAE_PRIMATES,Aotus,AOTIDAE,PRIMATES,Aotus_vociferans,3,0,sampled,0.873,FALSE,FS2016,Reported,Ecological_Archives_E084-094_(2003),1,-0.956214,-1.163698072,-70.93563165,-4.791764,2.879336,-78.9005,-59.8664
Aotus_zonalis,Aotus_zonalis_AOTIDAE_PRIMATES,Aotus,AOTIDAE,PRIMATES,NA,3,0,sampled,0.9025,FALSE,FS2016,Reported,"Campbell,_C.,_Fuentes,_A.,_MacKinnon,_K.,_Panger,_M.,_&_Bearder,_S_(2007)__Primates_in_Perspective._pp._139–150._Fernandez-Duque,_E._(2007)._""Aotinae"".",1,5.919986,6.847038645,-77.87135576,2.202436,9.637536,-82.5473,-75.6265
Aplodontia_rufa,Aplodontia_rufa_APLODONTIIDAE_RODENTIA,Aplodontia,APLODONTIIDAE,RODENTIA,Aplodontia_rufa,24,0,sampled,1.004,FALSE,FS2016,Reported,Ecological_Archives_E084-094_(2003),2,43.227286,44.57260904,-122.1256617,36.307736,50.146836,-124.7333,-118.2149
Apodemus_agrarius,Apodemus_agrarius_MURIDAE_RODENTIA,Apodemus,MURIDAE,RODENTIA,Apodemus_agrarius,10,0,sampled,0.0233,FALSE,FS2016,Reported,Ecological_Archives_E084-094_(2003),0,42.858091,48.76724263,70.70951518,21.9018,63.814382,8.277611,139.0228
Apodemus_alpicola,Apodemus_alpicola_MURIDAE_RODENTIA,Apodemus,MURIDAE,RODENTIA,Apodemus_alpicola,5,0,sampled,0.0281,FALSE,FS2016,Reported,Ecological_Archives_E084-094_(2003),2,45.972438,46.53585848,10.17238984,43.962042,47.982834,6.050436,15.354093
Apodemus_argenteus,Apodemus_argenteus_MURIDAE_RODENTIA,Apodemus,MURIDAE,RODENTIA,Apodemus_argenteus,5,0,sampled,0.021,FALSE,FS2016,Reported,Journal_of_Mammalogy_81:_758-768_(2000),2,37.873786,37.65753277,138.0893679,30.224436,45.523136,128.602,145.8209
Apodemus_chevrieri,Apodemus_chevrieri_MURIDAE_RODENTIA,Apodemus,MURIDAE,RODENTIA,Apodemus_chevrieri,8,0,sampled,0.0329,FALSE,FS2016,Reported,Ecological_Archives_E084-094_(2003),0,28.7131175,28.90117987,104.4805996,22.466004,34.960231,97.621569,112.656987
Apodemus_draco,Apodemus_draco_MURIDAE_RODENTIA,Apodemus,MURIDAE,RODENTIA,Apodemus_draco,8,0,sampled,0.0223,FALSE,FS2016,Reported,Ecological_Archives_E084-094_(2003),0,31.049986,28.8446764,106.1463138,21.087536,41.012436,93.8154,120.3135
Apodemus_epimelas,Apodemus_epimelas_MURIDAE_RODENTIA,Apodemus,MURIDAE,RODENTIA,Apodemus_epimelas,0,0,imputed,0.042,FALSE,FS2016,Reported,"Aulagnier_S,_Haffner_P,_Mitchell-Jones_AJ,_Moutou_F,_Zima,_J._The_Mammals_of_Europe,_North_Africa_and_the_Middle_East_(2009)",2,40.8781555,40.33940245,21.46397127,36.381001,45.37531,14.25771,25.990523
Apodemus_flavicollis,Apodemus_flavicollis_MURIDAE_RODENTIA,Apodemus,MURIDAE,RODENTIA,Apodemus_flavicollis,7,0,sampled,0.039,FALSE,FS2016,Reported,"Aulagnier_S,_Haffner_P,_Mitchell-Jones_AJ,_Moutou_F,_Zima,_J._The_Mammals_of_Europe,_North_Africa_and_the_Middle_East_(2009)",2,47.238809,50.5127762,25.42849122,30.446958,64.03066,-8.074001,58.558414
Apodemus_gurkha,Apodemus_gurkha_MURIDAE_RODENTIA,Apodemus,MURIDAE,RODENTIA,Apodemus_gurkha,5,0,sampled,0.0399,FALSE,FS2016,Reported,Ecological_Archives_E084-094_(2003),2,28.7899945,28.43053252,84.33832005,28.020492,29.559497,82.138913,85.036534
Apodemus_hyrcanicus,Apodemus_hyrcanicus_MURIDAE_RODENTIA,Apodemus,MURIDAE,RODENTIA,Apodemus_hyrcanicus,0,0,imputed,0.0285,FALSE,FS2016,Reported,"Aulagnier_S,_Haffner_P,_Mitchell-Jones_AJ,_Moutou_F,_Zima,_J._The_Mammals_of_Europe,_North_Africa_and_the_Middle_East_(2009)",2,37.930989,37.4666254,51.61427939,36.120214,39.741764,48.120749,60.401234
Apodemus_latronum,Apodemus_latronum_MURIDAE_RODENTIA,Apodemus,MURIDAE,RODENTIA,Apodemus_latronum,7,0,sampled,0.0352,FALSE,FS2016,Reported,Ecological_Archives_E084-094_(2003),2,30.831976,30.52771249,100.0223233,25.036064,36.627888,94.766049,104.671094
Apodemus_mystacinus,Apodemus_mystacinus_MURIDAE_RODENTIA,Apodemus,MURIDAE,RODENTIA,Apodemus_mystacinus,8,0,sampled,0.0456,FALSE,FS2016,Reported,Ecological_Archives_E084-094_(2003),2,36.87236,38.77651916,35.37007634,30.562762,43.181958,23.520502,44.369714
Apodemus_pallipes,Apodemus_pallipes_MURIDAE_RODENTIA,Apodemus,MURIDAE,RODENTIA,Apodemus_pallipes,5,0,sampled,0.02126628,TRUE,NA,NA,NA,2,34.086936,34.78286046,71.33782357,27.807036,40.366836,61.4421,84.9176
Apodemus_peninsulae,Apodemus_peninsulae_MURIDAE_RODENTIA,Apodemus,MURIDAE,RODENTIA,Apodemus_peninsulae,8,0,sampled,0.0329,FALSE,FS2016,Reported,Ecological_Archives_E084-094_(2003),2,46.4737145,48.8490708,114.3021516,24.761456,68.185973,82.702224,151.134856
Apodemus_ponticus,Apodemus_ponticus_MURIDAE_RODENTIA,Apodemus,MURIDAE,RODENTIA,Apodemus_ponticus,3,0,sampled,0.034703006,TRUE,NA,NA,NA,2,41.882027,41.7453319,44.80469319,38.408237,45.355817,37.228256,50.370094
Apodemus_rusiges,Apodemus_rusiges_MURIDAE_RODENTIA,Apodemus,MURIDAE,RODENTIA,Apodemus_rusiges,0,0,imputed,0.034897642,TRUE,NA,NA,NA,2,33.039429,34.62561952,73.23727393,29.605536,36.473322,66.766,76.829579
Apodemus_semotus,Apodemus_semotus_MURIDAE_RODENTIA,Apodemus,MURIDAE,RODENTIA,Apodemus_semotus,7,0,sampled,0.0288,FALSE,FS2016,Reported,"Smith_AT,_Xie_Y,_Hoffmann_RS,_Lunde_D,_MacKinnon_J,_Wilson_DE,_Wozencraft_WD._A_Guide_to_the_Mammals_of_China_(2008)",0,23.60003,23.74590742,120.9588079,21.9018,25.29826,120.047523,122.000443
Apodemus_speciosus,Apodemus_speciosus_MURIDAE_RODENTIA,Apodemus,MURIDAE,RODENTIA,Apodemus_speciosus,6,0,sampled,0.0338,FALSE,FS2016,Reported,Ecological_Archives_E084-094_(2003),2,37.6672885,37.6891591,138.1245127,29.811441,45.523136,128.601837,146.577637
Apodemus_sylvaticus,Apodemus_sylvaticus_MURIDAE_RODENTIA,Apodemus,MURIDAE,RODENTIA,Apodemus_sylvaticus,6,0,sampled,0.0305,FALSE,FS2016,Reported,Ecological_Archives_E084-094_(2003),2,49.5949415,48.49858694,10.84213454,32.655253,66.53463,-24.546524,37.184602
Apodemus_uralensis,Apodemus_uralensis_MURIDAE_RODENTIA,Apodemus,MURIDAE,RODENTIA,Apodemus_uralensis,6,0,sampled,0.0171,FALSE,FS2016,Reported,Ecological_Archives_E084-094_(2003),2,48.1428845,50.20675581,55.15768868,36.77347,59.512299,13.447268,94.981429
Apodemus_witherbyi,Apodemus_witherbyi_MURIDAE_RODENTIA,Apodemus,MURIDAE,RODENTIA,Apodemus_witherbyi,4,0,sampled,0.03,FALSE,FS2016,Reported,Ecological_Archives_E084-094_(2003),2,39.984482,39.70626521,41.00356372,32.186844,47.78212,25.96386,58.992422
Apomys_abrae,Apomys_abrae_MURIDAE_RODENTIA,Apomys,MURIDAE,RODENTIA,Apomys_abrae,2,0,sampled,0.0566,FALSE,FS2016,Reported,Ecological_Archives_E084-094_(2003),1,17.1583245,17.28453796,120.9055909,15.925265,18.391384,120.399803,121.302026
Apomys_aurorae,Apomys_aurorae_MURIDAE_RODENTIA,Apomys,MURIDAE,RODENTIA,NA,2,0,sampled,0.074800034,TRUE,NA,NA,NA,1,15.5817245,NA,NA,15.363334,15.800115,121.178003,121.641052
Apomys_banahao,Apomys_banahao_MURIDAE_RODENTIA,Apomys,MURIDAE,RODENTIA,NA,2,0,sampled,0.08031085,TRUE,NA,NA,NA,1,14.051541,NA,NA,14.017696,14.085386,121.423733,121.536703
Apomys_brownorum,Apomys_brownorum_MURIDAE_RODENTIA,Apomys,MURIDAE,RODENTIA,NA,2,0,sampled,0.08031085,TRUE,NA,NA,NA,1,15.4711605,NA,NA,15.449323,15.492998,120.11255,120.149207
Apomys_camiguinensis,Apomys_camiguinensis_MURIDAE_RODENTIA,Apomys,MURIDAE,RODENTIA,NA,2,0,sampled,0.0398,FALSE,FS2016,Reported,Fieldiana_Zoology_106:_14-27_(2006),1,9.177486,9.178700366,124.7108595,9.136336,9.218636,124.6556,124.7649
Apomys_datae,Apomys_datae_MURIDAE_RODENTIA,Apomys,MURIDAE,RODENTIA,Apomys_datae,5,0,sampled,0.106,FALSE,FS2016,Reported,Ecological_Archives_E084-094_(2003),1,17.313236,17.28453796,120.9055909,16.086336,18.540136,120.4456,121.211
Apomys_gracilirostris,Apomys_gracilirostris_MURIDAE_RODENTIA,Apomys,MURIDAE,RODENTIA,Apomys_gracilirostris,2,0,sampled,0.0881,FALSE,FS2016,Reported,Proceedings_of_the_Biological_Society_of_Washington_108:_302-318_(1995),1,13.214886,13.21788614,120.9705052,13.090436,13.339336,120.835,121.1101
Apomys_hylocetes,Apomys_hylocetes_MURIDAE_RODENTIA,Apomys,MURIDAE,RODENTIA,Apomys_hylocetes,6,0,sampled,0.0451,FALSE,FS2016,Reported,Ecological_Archives_E084-094_(2003),1,7.625236,7.864571217,124.6868334,6.933836,8.316636,124.1587,125.3679
Apomys_insignis,Apomys_insignis_MURIDAE_RODENTIA,Apomys,MURIDAE,RODENTIA,Apomys_insignis,3,0,sampled,0.0299,FALSE,FS2016,Reported,Ecological_Archives_E084-094_(2003),1,8.015136,7.682291975,124.8360752,5.556236,10.474036,121.8941,126.6015
Apomys_iridensis,Apomys_iridensis_MURIDAE_RODENTIA,Apomys,MURIDAE,RODENTIA,NA,2,0,sampled,0.074800034,TRUE,NA,NA,NA,1,14.7826375,NA,NA,14.602853,14.962422,121.136567,121.504436
Apomys_littoralis,Apomys_littoralis_MURIDAE_RODENTIA,Apomys,MURIDAE,RODENTIA,Apomys_littoralis,0,0,imputed,0.031,FALSE,FS2016,Reported,Ecological_Archives_E084-094_(2003),1,7.393486,7.467498775,124.2971059,6.716136,8.070836,123.9234,124.6912
Apomys_lubangensis,Apomys_lubangensis_MURIDAE_RODENTIA,Apomys,MURIDAE,RODENTIA,NA,2,0,sampled,0.080932678,TRUE,NA,NA,NA,1,13.76715,NA,NA,13.66972,13.86458,120.076393,120.29583
Apomys_magnus,Apomys_magnus_MURIDAE_RODENTIA,Apomys,MURIDAE,RODENTIA,NA,2,0,sampled,0.074800034,TRUE,NA,NA,NA,1,14.0578485,NA,NA,14.009902,14.105795,121.409421,121.546133
Apomys_microdon,Apomys_microdon_MURIDAE_RODENTIA,Apomys,MURIDAE,RODENTIA,Apomys_microdon,3,0,sampled,0.0351,FALSE,FS2016,Reported,Ecological_Archives_E084-094_(2003),1,15.527086,15.87946013,121.6617064,12.535136,18.519036,119.9509,124.4208
Apomys_minganensis,Apomys_minganensis_MURIDAE_RODENTIA,Apomys,MURIDAE,RODENTIA,NA,2,0,sampled,0.074800034,TRUE,NA,NA,NA,1,15.568902,NA,NA,15.363334,15.77447,121.196121,121.62556
Apomys_musculus,Apomys_musculus_MURIDAE_RODENTIA,Apomys,MURIDAE,RODENTIA,Apomys_musculus,4,0,sampled,0.0212,FALSE,FS2016,Reported,Ecological_Archives_E084-094_(2003),1,13.863136,15.06253244,121.8488455,9.817636,17.908636,120.297,125.7073
Apomys_sacobianus,Apomys_sacobianus_MURIDAE_RODENTIA,Apomys,MURIDAE,RODENTIA,Apomys_sacobianus,2,0,sampled,0.0824,FALSE,FS2016,Reported,Ecological_Archives_E084-094_(2003),1,15.137186,15.18416729,120.5485587,14.864214,15.410158,120.239979,120.494677
Apomys_sierrae,Apomys_sierrae_MURIDAE_RODENTIA,Apomys,MURIDAE,RODENTIA,NA,1,0,sampled,0.074800034,TRUE,NA,NA,NA,1,17.2501145,NA,NA,15.920147,18.580082,121.135847,122.382938
Apomys_zambalensis,Apomys_zambalensis_MURIDAE_RODENTIA,Apomys,MURIDAE,RODENTIA,NA,2,0,sampled,0.074800034,TRUE,NA,NA,NA,1,15.2571815,NA,NA,14.635906,15.878457,119.985957,120.484645
Aproteles_bulmerae,Aproteles_bulmerae_PTEROPODIDAE_CHIROPTERA,Aproteles,PTEROPODIDAE,CHIROPTERA,Aproteles_bulmerae,0,0,imputed,0.6,FALSE,FS2016,Reported,Ecological_Archives_E084-094_(2003),1,-5.924564,-6.331815582,144.4104637,-6.644464,-5.204664,141.4414,145.218
Arabitragus_jayakari,Arabitragus_jayakari_BOVIDAE_CETARTIODACTYLA,Arabitragus,BOVIDAE,CETARTIODACTYLA,NA,4,0,sampled,23,FALSE,FS2016,Reported,Ecological_Archives_E084-094_(2003),0,24.270886,23.781747,57.28901521,22.153936,26.387836,55.9359,59.4847
Arborimus_albipes,Arborimus_albipes_CRICETIDAE_RODENTIA,Arborimus,CRICETIDAE,RODENTIA,Arborimus_albipes,1,0,sampled,0.023,FALSE,FS2016,Reported,Ecological_Archives_E084-094_(2003),2,43.207286,43.46403372,-123.3760429,40.185136,46.229436,-124.5607,-121.8243
Arborimus_longicaudus,Arborimus_longicaudus_CRICETIDAE_RODENTIA,Arborimus,CRICETIDAE,RODENTIA,Arborimus_longicaudus,1,0,sampled,0.0218,FALSE,FS2016,Reported,Ecological_Archives_E084-094_(2003),2,43.607486,43.80056247,-123.3775295,41.460936,45.754036,-124.5607,-121.4634
Arborimus_pomo,Arborimus_pomo_CRICETIDAE_RODENTIA,Arborimus,CRICETIDAE,RODENTIA,Arborimus_pomo,1,0,sampled,0.0325,FALSE,FS2016,Reported,Ecological_Archives_E084-094_(2003),2,39.752136,40.03986373,-123.5849467,37.929836,41.574436,-124.4054,-122.6358
Archaeolemur_edwardsi,Archaeolemur_edwardsi_Archaeolemuridae_PRIMATES,Archaeolemur,Archaeolemuridae,PRIMATES,NA,0,1,imputed,26.5,FALSE,FS2016,Reported,"Werdelin_L_&_Sanders_WJ_(eds)_Cenozoic_Mammals_of_Africa_(2010)._Subfossil_Lemurs_of_Madagascar_Godfrey_LR,_Jungers_WL,_Burney_DA",NA,NA,NA,NA,NA,NA,NA,NA
Archaeolemur_majori,Archaeolemur_majori_Archaeolemuridae_PRIMATES,Archaeolemur,Archaeolemuridae,PRIMATES,NA,1,1,sampled,18,FALSE,FS2016,Reported,"Werdelin_L_&_Sanders_WJ_(eds)_Cenozoic_Mammals_of_Africa_(2010)._Subfossil_Lemurs_of_Madagascar_Godfrey_LR,_Jungers_WL,_Burney_DA",NA,NA,NA,NA,NA,NA,NA,NA
Archboldomys_luzonensis,Archboldomys_luzonensis_MURIDAE_RODENTIA,Archboldomys,MURIDAE,RODENTIA,Archboldomys_luzonensis,6,0,sampled,0.0354,FALSE,FS2016,Reported,Ecological_Archives_E084-094_(2003),1,13.654986,13.65447087,123.3843677,13.632236,13.677736,123.3617,123.4105
Archboldomys_maximus,Archboldomys_maximus_MURIDAE_RODENTIA,Archboldomys,MURIDAE,RODENTIA,NA,2,0,sampled,0.073317809,TRUE,NA,NA,NA,1,17.0213155,NA,NA,16.989999,17.052632,121.094262,121.156752
Arctictis_binturong,Arctictis_binturong_VIVERRIDAE_CARNIVORA,Arctictis,VIVERRIDAE,CARNIVORA,Arctictis_binturong,3,0,sampled,9.875,FALSE,FS2016,Reported,Ecological_Archives_E084-094_(2003),0,10.439233,11.20716331,103.8412859,-7.81607,28.694536,87.508306,119.933806
Arctocebus_aureus,Arctocebus_aureus_LORISIDAE_PRIMATES,Arctocebus,LORISIDAE,PRIMATES,Arctocebus_aureus,0,0,imputed,0.235,FALSE,FS2016,Reported,Ecological_Archives_E084-094_(2003),1,0.464236,1.086804286,13.4966114,-4.304561,5.233033,8.695471,18.649839
Arctocebus_calabarensis,Arctocebus_calabarensis_LORISIDAE_PRIMATES,Arctocebus,LORISIDAE,PRIMATES,Arctocebus_calabarensis,12,0,sampled,0.21,FALSE,FS2016,Reported,Ecological_Archives_E084-094_(2003),1,5.522824,5.634449325,8.745216491,3.586899,7.458749,6.408607,11.085854
Arctocephalus_australis,Arctocephalus_australis_OTARIIDAE_CARNIVORA,Arctocephalus,OTARIIDAE,CARNIVORA,Arctocephalus_australis,8,0,sampled,45,FALSE,FS2016,Reported,Ecological_Archives_E084-094_(2003),0,-30.8457115,-43.73046026,-64.5959565,-56.931528,-4.759895,-81.579301,-51.377574
Arctocephalus_forsteri,Arctocephalus_forsteri_OTARIIDAE_CARNIVORA,Arctocephalus,OTARIIDAE,CARNIVORA,Arctocephalus_forsteri,27,0,sampled,101.25,FALSE,FS2016,Reported,Ecological_Archives_E084-094_(2003),2,-42.9030535,-42.57357805,133.7131269,-57.085793,-28.720314,-179.999989,179.999989
Arctocephalus_galapagoensis,Arctocephalus_galapagoensis_OTARIIDAE_CARNIVORA,Arctocephalus,OTARIIDAE,CARNIVORA,Arctocephalus_galapagoensis,1,0,sampled,27,FALSE,FS2016,Reported,Ecological_Archives_E084-094_(2003),1,0.084137,-0.009984684,-90.81262902,-1.855835,2.024109,-92.600647,-88.967743
Arctocephalus_gazella,Arctocephalus_gazella_OTARIIDAE_CARNIVORA,Arctocephalus,OTARIIDAE,CARNIVORA,Arctocephalus_gazella,2,0,sampled,97.5,FALSE,FS2016,Reported,Ecological_Archives_E084-094_(2003),2,-55.505264,-56.09427959,46.47040893,-66.244664,-44.765864,-61.9968,161.819
Arctocephalus_philippii,Arctocephalus_philippii_OTARIIDAE_CARNIVORA,Arctocephalus,OTARIIDAE,CARNIVORA,Arctocephalus_philippii,1,0,sampled,95,FALSE,FS2016,Reported,Ecological_Archives_E084-094_(2003),0,-19.332914,-30.8273698,-78.30905824,-45.236474,6.570646,-86.737936,-70.056274
Arctocephalus_pusillus,Arctocephalus_pusillus_OTARIIDAE_CARNIVORA,Arctocephalus,OTARIIDAE,CARNIVORA,Arctocephalus_pusillus,4,0,sampled,178.5,FALSE,FS2016,Reported,Ecological_Archives_E084-094_(2003),0,-28.3935495,-32.18458445,59.3465919,-44.221458,-12.565641,9.631332,151.218461
Arctocephalus_townsendi,Arctocephalus_townsendi_OTARIIDAE_CARNIVORA,Arctocephalus,OTARIIDAE,CARNIVORA,Arctocephalus_townsendi,4,0,sampled,105,FALSE,FS2016,Reported,Ecological_Archives_E084-094_(2003),0,27.0756385,26.41906846,-115.7066217,19.565962,34.585315,-122.264029,-107.928596
Arctocephalus_tropicalis,Arctocephalus_tropicalis_OTARIIDAE_CARNIVORA,Arctocephalus,OTARIIDAE,CARNIVORA,Arctocephalus_tropicalis,1,0,sampled,84,FALSE,FS2016,Reported,Ecological_Archives_E084-094_(2003),2,-46.609064,-45.82801041,71.28670213,-61.111164,-32.106964,-16.6311,164.521846
Arctodus_simus,Arctodus_simus_URSIDAE_CARNIVORA,Arctodus,URSIDAE,CARNIVORA,NA,4,1,sampled,720,FALSE,FS2016,Reported,Ecological_Archives_E084-094_(2003),NA,NA,NA,NA,NA,NA,NA,NA
Arctogalidia_trivirgata,Arctogalidia_trivirgata_VIVERRIDAE_CARNIVORA,Arctogalidia,VIVERRIDAE,CARNIVORA,Arctogalidia_trivirgata,2,0,sampled,2.25,FALSE,FS2016,Reported,Ecological_Archives_E084-094_(2003),0,10.6699745,9.889059226,104.611795,-6.911263,28.251212,90.347752,119.267502
Arctonyx_collaris,Arctonyx_collaris_MUSTELIDAE_CARNIVORA,Arctonyx,MUSTELIDAE,CARNIVORA,Arctonyx_collaris,15,0,sampled,6.356,FALSE,FS2016,Reported,Ecological_Archives_E084-094_(2003),0,21.3078765,19.21598056,100.234568,-5.46508,48.080833,88.020238,122.754725
Ardops_nichollsi,Ardops_nichollsi_PHYLLOSTOMIDAE_CHIROPTERA,Ardops,PHYLLOSTOMIDAE,CHIROPTERA,Ardops_nichollsi,2,0,sampled,0.0172,FALSE,FS2016,Reported,Ecological_Archives_E084-094_(2003),1,15.326636,15.27931109,-61.38587964,13.118436,17.534836,-63.0035,-60.8163
Arielulus_aureocollaris,Arielulus_aureocollaris_VESPERTILIONIDAE_CHIROPTERA,Arielulus,VESPERTILIONIDAE,CHIROPTERA,Arielulus_aureocollaris,2,0,sampled,0.0145,FALSE,FS2016,Reported,Francis_CM._A_Guide_to_the_Mammals_of_Southeast_Asia_(2008),1,20.318236,20.67507562,104.7760478,18.155436,22.481036,99.0751,105.7605
Arielulus_circumdatus,Arielulus_circumdatus_VESPERTILIONIDAE_CHIROPTERA,Arielulus,VESPERTILIONIDAE,CHIROPTERA,Arielulus_circumdatus,1,0,sampled,0.0104,FALSE,FS2016,Reported,Ecological_Archives_E084-094_(2003),0,10.209536,21.9215158,95.42879417,-7.359664,27.778736,86.8663,108.2388
Arielulus_cuprosus,Arielulus_cuprosus_VESPERTILIONIDAE_CHIROPTERA,Arielulus,VESPERTILIONIDAE,CHIROPTERA,Arielulus_cuprosus,0,0,imputed,0.0055,FALSE,FS2016,Reported,Ecological_Archives_E084-094_(2003),1,3.4634015,5.848446971,117.9535922,1.028167,5.898636,109.684248,118.0085
Arielulus_societatis,Arielulus_societatis_VESPERTILIONIDAE_CHIROPTERA,Arielulus,VESPERTILIONIDAE,CHIROPTERA,Arielulus_societatis,0,0,imputed,0.0049,FALSE,FS2016,Reported,Francis_CM._A_Guide_to_the_Mammals_of_Southeast_Asia_(2008),1,4.3921335,4.437404749,101.6418152,3.19803,5.586237,101.240301,102.305765
Arielulus_torquatus,Arielulus_torquatus_VESPERTILIONIDAE_CHIROPTERA,Arielulus,VESPERTILIONIDAE,CHIROPTERA,Arielulus_torquatus,0,0,imputed,0.0063,FALSE,FS2016,Assumed_isometric_based_on_forearm_length,"Smith_AT,_Xie_Y,_Hoffmann_RS,_Lunde_D,_MacKinnon_J,_Wilson_DE,_Wozencraft_WD._A_Guide_to_the_Mammals_of_China_(2008)",0,23.60003,23.7505412,120.9696677,21.9018,25.29826,120.047523,122.000443
Ariteus_flavescens,Ariteus_flavescens_PHYLLOSTOMIDAE_CHIROPTERA,Ariteus,PHYLLOSTOMIDAE,CHIROPTERA,Ariteus_flavescens,3,0,sampled,0.0119,FALSE,FS2016,Reported,Ecological_Archives_E084-094_(2003),1,18.115236,18.15618438,-77.31071218,17.703536,18.526936,-78.3666,-76.1803
Artibeus_amplus,Artibeus_amplus_PHYLLOSTOMIDAE_CHIROPTERA,Artibeus,PHYLLOSTOMIDAE,CHIROPTERA,Artibeus_amplus,2,0,sampled,0.06,FALSE,FS2016,Reported,Ecological_Archives_E084-094_(2003),1,6.719636,6.245708741,-66.63495629,0.975936,12.463336,-77.9345,-55.3096
Artibeus_concolor,Artibeus_concolor_PHYLLOSTOMIDAE_CHIROPTERA,Artibeus,PHYLLOSTOMIDAE,CHIROPTERA,Artibeus_concolor,6,0,sampled,0.0194,FALSE,FS2016,Reported,Ecological_Archives_E084-094_(2003),1,-1.500964,-2.720771538,-58.31253774,-13.022364,10.020436,-75.2378,-34.7901
Artibeus_fimbriatus,Artibeus_fimbriatus_PHYLLOSTOMIDAE_CHIROPTERA,Artibeus,PHYLLOSTOMIDAE,CHIROPTERA,Artibeus_fimbriatus,2,0,sampled,0.0639,FALSE,FS2016,Reported,Ecological_Archives_E084-094_(2003),0,-18.592514,-22.35519757,-48.21740716,-30.301064,-6.883964,-59.3606,-34.8476
Artibeus_fraterculus,Artibeus_fraterculus_PHYLLOSTOMIDAE_CHIROPTERA,Artibeus,PHYLLOSTOMIDAE,CHIROPTERA,Artibeus_fraterculus,2,0,sampled,0.0395,FALSE,FS2016,Reported,"Eisenberg_JF,_Redford_KH_Mammals_of_the_Neotropics_(Volume_3_):_The_Central_Neotropics:_Ecuador,_Peru,_Bolivia,_Brazil_(2000)",1,-6.671764,-6.865304447,-78.53633141,-13.700864,0.357336,-81.3267,-75.695
Artibeus_hirsutus,Artibeus_hirsutus_PHYLLOSTOMIDAE_CHIROPTERA,Artibeus,PHYLLOSTOMIDAE,CHIROPTERA,Artibeus_hirsutus,2,0,sampled,0.0387,FALSE,FS2016,Reported,Ecological_Archives_E084-094_(2003),0,22.675086,22.28196414,-105.1012206,16.652036,28.698136,-110.1139,-98.9528
Artibeus_inopinatus,Artibeus_inopinatus_PHYLLOSTOMIDAE_CHIROPTERA,Artibeus,PHYLLOSTOMIDAE,CHIROPTERA,Artibeus_inopinatus,1,0,sampled,0.0293,FALSE,FS2016,Reported,Ecological_Archives_E084-094_(2003),1,12.973186,13.24046694,-87.66845723,11.913936,14.032436,-90.0888,-85.8704
Artibeus_jamaicensis,Artibeus_jamaicensis_PHYLLOSTOMIDAE_CHIROPTERA,Artibeus,PHYLLOSTOMIDAE,CHIROPTERA,Artibeus_jamaicensis,29,0,sampled,0.0422,FALSE,FS2016,Reported,Ecological_Archives_E084-094_(2003),0,15.187963,13.57874139,-86.36055765,6.51639,23.859536,-106.3705,-59.420376
Artibeus_lituratus,Artibeus_lituratus_PHYLLOSTOMIDAE_CHIROPTERA,Artibeus,PHYLLOSTOMIDAE,CHIROPTERA,Artibeus_lituratus,7,0,sampled,0.0605,FALSE,FS2016,Reported,Ecological_Archives_E084-094_(2003),2,-1.541764,-5.337697727,-61.77231216,-29.576464,26.492936,-109.4023,-34.7901
Artibeus_obscurus,Artibeus_obscurus_PHYLLOSTOMIDAE_CHIROPTERA,Artibeus,PHYLLOSTOMIDAE,CHIROPTERA,Artibeus_obscurus,4,0,sampled,0.0352,FALSE,FS2016,Reported,Ecological_Archives_E084-094_(2003),0,-9.281014,-8.204189108,-56.80876287,-29.325664,10.763636,-78.3263,-34.7901
Artibeus_planirostris,Artibeus_planirostris_PHYLLOSTOMIDAE_CHIROPTERA,Artibeus,PHYLLOSTOMIDAE,CHIROPTERA,NA,3,0,sampled,0.047,FALSE,FS2016,Reported,Ecological_Archives_E084-094_(2003),0,-9.231514,-7.778383618,-58.22541718,-26.230964,7.767936,-76.8047,-34.7901
Arvicanthis_abyssinicus,Arvicanthis_abyssinicus_MURIDAE_RODENTIA,Arvicanthis,MURIDAE,RODENTIA,Arvicanthis_abyssinicus,1,0,sampled,0.0771,FALSE,FS2016,Reported,Ecological_Archives_E084-094_(2003),1,11.408286,11.22733144,38.22302999,6.821336,15.995236,36.1468,40.0861
Arvicanthis_ansorgei,Arvicanthis_ansorgei_MURIDAE_RODENTIA,Arvicanthis,MURIDAE,RODENTIA,Arvicanthis_ansorgei,1,0,sampled,0.110582668,TRUE,NA,NA,NA,1,12.8016375,12.08983013,-7.624631144,9.037539,16.565736,-16.825079,2.402704
Arvicanthis_blicki,Arvicanthis_blicki_MURIDAE_RODENTIA,Arvicanthis,MURIDAE,RODENTIA,Arvicanthis_blicki,0,0,imputed,0.128,FALSE,FS2016,Reported,Ecological_Archives_E084-094_(2003),1,7.211136,7.04945668,39.44945139,6.268036,8.154236,38.7591,40.4023
Arvicanthis_nairobae,Arvicanthis_nairobae_MURIDAE_RODENTIA,Arvicanthis,MURIDAE,RODENTIA,Arvicanthis_nairobae,1,0,sampled,0.104,FALSE,FS2016,Reported,Ecological_Archives_E084-094_(2003),1,-1.930864,-2.186725136,37.30696145,-5.228564,1.366836,35.903,39.0508
Arvicanthis_neumanni,Arvicanthis_neumanni_MURIDAE_RODENTIA,Arvicanthis,MURIDAE,RODENTIA,Arvicanthis_neumanni,6,0,sampled,0.106874073,TRUE,NA,NA,NA,1,2.182336,2.968334868,40.92824791,-9.091764,13.456436,33.1874,48.8004
Arvicanthis_niloticus,Arvicanthis_niloticus_MURIDAE_RODENTIA,Arvicanthis,MURIDAE,RODENTIA,Arvicanthis_niloticus,3,0,sampled,0.1069,FALSE,FS2016,Reported,Ecological_Archives_E084-094_(2003),0,7.6692395,8.91600701,21.51342549,-16.192594,31.531073,-17.535236,46.602179
Arvicanthis_rufinus,Arvicanthis_rufinus_MURIDAE_RODENTIA,Arvicanthis,MURIDAE,RODENTIA,Arvicanthis_rufinus,0,0,imputed,0.1441,FALSE,FS2016,Assumed_isometric_based_on_centroid_size,Journal_of_Zoological_Systematics_and_Evolutionary_Research_39:_235-245_(2001),1,12.5607715,8.097521993,-3.119516397,4.353036,20.768507,-13.3247,14.10079
Arvicola_amphibius,Arvicola_amphibius_CRICETIDAE_RODENTIA,Arvicola,CRICETIDAE,RODENTIA,Arvicola_amphibius,4,0,sampled,0.225,FALSE,FS2016,Reported,"Aulagnier_S,_Haffner_P,_Mitchell-Jones_AJ,_Moutou_F,_Zima,_J._The_Mammals_of_Europe,_North_Africa_and_the_Middle_East_(2009)",2,51.375409,55.78669696,56.09667405,31.753336,70.997482,-6.088056,136.012501
Arvicola_sapidus,Arvicola_sapidus_CRICETIDAE_RODENTIA,Arvicola,CRICETIDAE,RODENTIA,Arvicola_sapidus,2,0,sampled,0.22,FALSE,FS2016,Reported,Ecological_Archives_E084-094_(2003),2,43.2325325,43.78544826,-0.89310483,36,50.465065,-9.494722,7.05486
Arvicola_scherman,Arvicola_scherman_CRICETIDAE_RODENTIA,Arvicola,CRICETIDAE,RODENTIA,Arvicola_scherman,2,0,sampled,0.0975,FALSE,FS2016,Reported,"Aulagnier_S,_Haffner_P,_Mitchell-Jones_AJ,_Moutou_F,_Zima,_J._The_Mammals_of_Europe,_North_Africa_and_the_Middle_East_(2009)",2,46.566686,47.20818257,11.69817889,41.615036,51.518336,-7.6157,26.8696
Asellia_arabica,Asellia_arabica_HIPPOSIDERIDAE_CHIROPTERA,Asellia,HIPPOSIDERIDAE,CHIROPTERA,NA,0,0,imputed,0.133114742,TRUE,NA,NA,NA,1,16.7039565,NA,NA,16.58586,16.822053,52.870337,53.22367
Asellia_patrizii,Asellia_patrizii_HIPPOSIDERIDAE_CHIROPTERA,Asellia,HIPPOSIDERIDAE,CHIROPTERA,Asellia_patrizii,0,0,imputed,0.006,FALSE,FS2016,Assumed_isometric_based_on_forearm_length,Acta_Chiropterologica_13:_245-270_(2011),1,12.4261535,11.92970734,39.94015529,7.88942,16.962887,38.392527,42.593053
Asellia_tridens,Asellia_tridens_HIPPOSIDERIDAE_CHIROPTERA,Asellia,HIPPOSIDERIDAE,CHIROPTERA,Asellia_tridens,8,0,sampled,0.0119,FALSE,FS2016,Reported,Ecological_Archives_E084-094_(2003),0,19.2605565,22.69684426,23.99571363,1.177689,37.343424,-17.535236,68.854728
Aselliscus_stoliczkanus,Aselliscus_stoliczkanus_HIPPOSIDERIDAE_CHIROPTERA,Aselliscus,HIPPOSIDERIDAE,CHIROPTERA,Aselliscus_stoliczkanus,13,0,sampled,0.0049,FALSE,FS2016,Reported,Ecological_Archives_E084-094_(2003),0,15.686586,21.97867974,102.5398303,2.717936,28.655236,96.121,111.265
Aselliscus_tricuspidatus,Aselliscus_tricuspidatus_HIPPOSIDERIDAE_CHIROPTERA,Aselliscus,HIPPOSIDERIDAE,CHIROPTERA,Aselliscus_tricuspidatus,4,0,sampled,0.0041,FALSE,FS2016,Reported,Ecological_Archives_E084-094_(2003),1,-6.973664,-4.942286127,143.9752652,-16.592864,2.645536,125.9964,167.8304
Atelerix_albiventris,Atelerix_albiventris_ERINACEIDAE_EULIPOTYPHLA,Atelerix,ERINACEIDAE,EULIPOTYPHLA,Atelerix_albiventris,5,0,sampled,0.6,FALSE,FS2016,Reported,Ecological_Archives_E084-094_(2003),1,-0.063414,6.991077392,19.93833174,-16.479464,16.352636,-17.5348,47.0732
Atelerix_algirus,Atelerix_algirus_ERINACEIDAE_EULIPOTYPHLA,Atelerix,ERINACEIDAE,EULIPOTYPHLA,Atelerix_algirus,6,0,sampled,1.25,FALSE,FS2016,Reported,Ecological_Archives_E084-094_(2003),2,35.060336,34.55229715,2.630067342,27.730736,42.389936,-16.9145,25.2544
Atelerix_frontalis,Atelerix_frontalis_ERINACEIDAE_EULIPOTYPHLA,Atelerix,ERINACEIDAE,EULIPOTYPHLA,Atelerix_frontalis,5,0,sampled,0.3095,FALSE,FS2016,Reported,Ecological_Archives_E084-094_(2003),0,-23.888914,-23.17481509,23.26485626,-32.775064,-15.002764,12.6505,30.9515
Atelerix_sclateri,Atelerix_sclateri_ERINACEIDAE_EULIPOTYPHLA,Atelerix,ERINACEIDAE,EULIPOTYPHLA,Atelerix_sclateri,0,0,imputed,0.4365,FALSE,FS2016,Reported,Global_Ecology_and_Biogeography_18_:19-29_(2009),1,6.316486,7.868104891,47.75981604,0.647736,11.985236,43.3484,51.413
Ateles_belzebuth,Ateles_belzebuth_ATELIDAE_PRIMATES,Ateles,ATELIDAE,PRIMATES,Ateles_belzebuth,15,0,sampled,5,FALSE,FS2016,Reported,Ecological_Archives_E084-094_(2003),1,-0.328264,0.409215771,-70.54160185,-7.322164,6.665636,-78.6296,-60.5142
Ateles_chamek,Ateles_chamek_ATELIDAE_PRIMATES,Ateles,ATELIDAE,PRIMATES,Ateles_chamek,9,0,sampled,6,FALSE,FS2016,Reported,Ecological_Archives_E084-094_(2003),1,-9.713064,-9.180222655,-64.67549202,-17.487364,-1.938764,-76.4173,-55.0521
Ateles_fusciceps,Ateles_fusciceps_ATELIDAE_PRIMATES,Ateles,ATELIDAE,PRIMATES,Ateles_fusciceps,27,0,sampled,9.1,FALSE,FS2016,Reported,Ecological_Archives_E084-094_(2003),1,4.038836,4.980654275,-77.14712654,-1.872364,9.950036,-80.0878,-74.485
Ateles_geoffroyi,Ateles_geoffroyi_ATELIDAE_PRIMATES,Ateles,ATELIDAE,PRIMATES,Ateles_geoffroyi,15,0,sampled,5.2849,FALSE,FS2016,Reported,Ecological_Archives_E084-094_(2003),0,15.664686,15.84661705,-89.28777336,6.840736,24.488636,-99.2274,-77.5908
Ateles_hybridus,Ateles_hybridus_ATELIDAE_PRIMATES,Ateles,ATELIDAE,PRIMATES,Ateles_hybridus,11,0,sampled,8.675,FALSE,FS2016,Reported,IUCN_species_fact_sheet,1,8.267136,8.273136107,-73.07371244,5.397436,11.136836,-75.2223,-65.4881
Ateles_marginatus,Ateles_marginatus_ATELIDAE_PRIMATES,Ateles,ATELIDAE,PRIMATES,Ateles_marginatus,1,0,sampled,6,FALSE,FS2016,Reported,Ecological_Archives_E084-094_(2003),1,-6.810964,-7.106781877,-54.54666416,-12.245164,-1.376764,-58.3689,-51.6414
Ateles_paniscus,Ateles_paniscus_ATELIDAE_PRIMATES,Ateles,ATELIDAE,PRIMATES,Ateles_paniscus,19,0,sampled,7.9001,FALSE,FS2016,Reported,Ecological_Archives_E084-094_(2003),1,2.570686,1.968295227,-56.79595192,-3.266364,8.407736,-62.0814,-50.4416
Atelocynus_microtis,Atelocynus_microtis_CANIDAE_CARNIVORA,Atelocynus,CANIDAE,CARNIVORA,Atelocynus_microtis,2,0,sampled,7.75,FALSE,FS2016,Reported,Ecological_Archives_E084-094_(2003),1,-5.849726,-5.574303363,-66.27171311,-13.20773,1.508278,-77.942505,-46.682616
Atherurus_africanus,Atherurus_africanus_HYSTRICIDAE_RODENTIA,Atherurus,HYSTRICIDAE,RODENTIA,Atherurus_africanus,3,0,sampled,1.934,FALSE,FS2016,Reported,Ecological_Archives_E084-094_(2003),1,2.093086,1.517437229,14.61436155,-6.541964,10.728136,-14.6692,37.3851
Atherurus_macrourus,Atherurus_macrourus_HYSTRICIDAE_RODENTIA,Atherurus,HYSTRICIDAE,RODENTIA,Atherurus_macrourus,10,0,sampled,2,FALSE,FS2016,Reported,Ecological_Archives_E084-094_(2003),0,16.387636,19.45731562,102.9296944,1.260836,31.514436,90.5399,111.9039
Atilax_paludinosus,Atilax_paludinosus_HERPESTIDAE_CARNIVORA,Atilax,HERPESTIDAE,CARNIVORA,Atilax_paludinosus,3,0,sampled,3.3,FALSE,FS2016,Reported,Ecological_Archives_E084-094_(2003),0,-9.699214,-2.646711098,20.61965633,-34.833464,15.435036,-17.5348,40.9054
Atlantoxerus_getulus,Atlantoxerus_getulus_SCIURIDAE_RODENTIA,Atlantoxerus,SCIURIDAE,RODENTIA,Atlantoxerus_getulus,1,0,sampled,0.251,FALSE,FS2016,Reported,Ecological_Archives_E084-094_(2003),2,30.683497,31.31306397,-5.814848391,26.737252,34.629742,-14.504035,0.168905
Auliscomys_boliviensis,Auliscomys_boliviensis_CRICETIDAE_RODENTIA,Auliscomys,CRICETIDAE,RODENTIA,Auliscomys_boliviensis,2,0,sampled,0.0657,FALSE,FS2016,Reported,Ecological_Archives_E084-094_(2003),1,-17.390564,-17.19476272,-68.38370099,-19.949064,-14.832064,-72.0946,-64.8984
Auliscomys_pictus,Auliscomys_pictus_CRICETIDAE_RODENTIA,Auliscomys,CRICETIDAE,RODENTIA,Auliscomys_pictus,2,0,sampled,0.0547,FALSE,FS2016,Reported,Ecological_Archives_E084-094_(2003),1,-12.890514,-14.22890943,-72.38389962,-18.034064,-7.746964,-77.7946,-67.236799
Auliscomys_sublimis,Auliscomys_sublimis_CRICETIDAE_RODENTIA,Auliscomys,CRICETIDAE,RODENTIA,Auliscomys_sublimis,6,0,sampled,0.038,FALSE,FS2016,Reported,Ecological_Archives_E084-094_(2003),0,-19.293814,-18.74628762,-68.23925559,-24.794164,-13.793464,-73.8767,-64.8942
Avahi_betsileo,Avahi_betsileo_INDRIIDAE_PRIMATES,Avahi,INDRIIDAE,PRIMATES,NA,0,0,imputed,1.05,FALSE,FS2016,Reported,Special_Publications_of_The_Museum_of_Texas_Tech_University_51:_1-60_(2007),1,-20.340498,-20.40914803,47.62731037,-20.63167,-20.049326,47.456038,47.807048
Avahi_cleesei,Avahi_cleesei_INDRIIDAE_PRIMATES,Avahi,INDRIIDAE,PRIMATES,NA,1,0,sampled,0.83,FALSE,FS2016,Reported,Garbutt_N._Mammals_of_Madagascar_a_Complete_Guide_(2007),1,-18.656114,-18.66227678,44.77380342,-19.151464,-18.160764,44.5503,44.9982
Avahi_laniger,Avahi_laniger_INDRIIDAE_PRIMATES,Avahi,INDRIIDAE,PRIMATES,Avahi_laniger,13,0,sampled,1.3,FALSE,FS2016,Reported,Garbutt_N._Mammals_of_Madagascar_a_Complete_Guide_(2007),1,-16.971264,-17.02697818,48.97276793,-19.854564,-14.087964,47.6261,50.2528
Avahi_meridionalis,Avahi_meridionalis_INDRIIDAE_PRIMATES,Avahi,INDRIIDAE,PRIMATES,NA,0,0,imputed,1.06,FALSE,FS2016,Reported,Special_Publications_of_The_Museum_of_Texas_Tech_University_51:_1-60_(2007),2,-24.7472665,-24.72607996,46.9308588,-25.067005,-24.427528,46.67135,47.222664
Avahi_mooreorum,Avahi_mooreorum_INDRIIDAE_PRIMATES,Avahi,INDRIIDAE,PRIMATES,NA,0,0,imputed,1.124240861,TRUE,NA,NA,NA,1,-15.5543485,-15.52239392,50.1261943,-15.906397,-15.2023,49.90501,50.36863
Avahi_occidentalis,Avahi_occidentalis_INDRIIDAE_PRIMATES,Avahi,INDRIIDAE,PRIMATES,Avahi_occidentalis,1,0,sampled,0.85,FALSE,FS2016,Reported,Garbutt_N._Mammals_of_Madagascar_a_Complete_Guide_(2007),1,-15.8681265,-16.04882635,47.07509988,-16.403889,-15.332364,46.654174,47.5978
Avahi_peyrierasi,Avahi_peyrierasi_INDRIIDAE_PRIMATES,Avahi,INDRIIDAE,PRIMATES,NA,0,0,imputed,0.92,FALSE,FS2016,Reported,Special_Publications_of_The_Museum_of_Texas_Tech_University_51:_1-60_(2007),1,-21.7073475,-21.86688973,47.27946549,-22.521126,-20.893569,46.893224,47.576745
Avahi_ramanantsoavanai,Avahi_ramanantsoavanai_INDRIIDAE_PRIMATES,Avahi,INDRIIDAE,PRIMATES,NA,0,0,imputed,0.98,FALSE,FS2016,Reported,Special_Publications_of_The_Museum_of_Texas_Tech_University_51:_1-60_(2007),0,-23.5099465,-23.53903896,46.9875346,-24.247867,-22.772026,46.392692,47.7655
Avahi_unicolor,Avahi_unicolor_INDRIIDAE_PRIMATES,Avahi,INDRIIDAE,PRIMATES,Avahi_unicolor,0,0,imputed,0.85,FALSE,FS2016,Reported,Garbutt_N._Mammals_of_Madagascar_a_Complete_Guide_(2007),1,-14.3538885,-14.35822368,48.47169879,-14.495826,-14.211951,48.312911,48.641666
Axis_axis,Axis_axis_CERVIDAE_CETARTIODACTYLA,Axis,CERVIDAE,CETARTIODACTYLA,Axis_axis,4,0,sampled,66.1728,FALSE,FS2016,Reported,Ecological_Archives_E084-094_(2003),0,17.9049715,20.49005553,79.59324631,5.916836,29.893107,70.320746,92.290791
Axis_calamianensis,Axis_calamianensis_CERVIDAE_CETARTIODACTYLA,Axis,CERVIDAE,CETARTIODACTYLA,Axis_calamianensis,0,0,imputed,40.5,FALSE,FS2016,Reported,Ecological_Archives_E084-094_(2003),1,11.9968055,12.03390215,120.044257,11.662278,12.331333,119.844803,120.341774
Axis_kuhlii,Axis_kuhlii_CERVIDAE_CETARTIODACTYLA,Axis,CERVIDAE,CETARTIODACTYLA,Axis_kuhlii,1,0,sampled,55,FALSE,FS2016,Reported,Ecological_Archives_E084-094_(2003),1,-5.8050425,-5.79918957,112.6209406,-5.856521,-5.753564,112.573901,112.6749
Axis_porcinus,Axis_porcinus_CERVIDAE_CETARTIODACTYLA,Axis,CERVIDAE,CETARTIODACTYLA,Axis_porcinus,4,0,sampled,34.1278,FALSE,FS2016,Reported,Ecological_Archives_E084-094_(2003),0,19.085336,25.98039406,87.33914013,6.087036,32.083636,67.071,106.047
Babyrousa_babyrussa,Babyrousa_babyrussa_SUIDAE_CETARTIODACTYLA,Babyrousa,SUIDAE,CETARTIODACTYLA,Babyrousa_babyrussa,4,0,sampled,100,FALSE,FS2016,Reported,Ecological_Archives_E084-094_(2003),1,-2.736431,-2.880164139,126.1159539,-3.844361,-1.628501,124.333169,127.266861
Babyrousa_celebensis,Babyrousa_celebensis_SUIDAE_CETARTIODACTYLA,Babyrousa,SUIDAE,CETARTIODACTYLA,Babyrousa_celebensis,1,0,sampled,84.3275,FALSE,FS2016,Assumed_isometric_based_on_skull_size,Asian_Wild_Pig_News_2:_33-39_(2002),1,-2.0738195,-1.796996633,121.4141489,-5.70325,1.555611,119.0191,125.295891
Babyrousa_togeanensis,Babyrousa_togeanensis_SUIDAE_CETARTIODACTYLA,Babyrousa,SUIDAE,CETARTIODACTYLA,Babyrousa_togeanensis,0,0,imputed,113.7628,FALSE,FS2016,Assumed_isometric_based_on_skull_size,Asian_Wild_Pig_News_2:_33-39_(2002),1,-0.4014725,-0.416610453,121.9090244,-0.571028,-0.231917,121.641304,122.142975
